[
  {
    "Sl No": 1,
    "Location": "14 Muni Anjaneyappa building vidyaranyapura main road doddabomma sandra Bangalore 560097",
    "Longitude": 77.55921117,
    "Latitude": 13.0593978
  },
  {
    "Sl No": 2,
    "Location": "No 8 New No 11/1 shop No 50 achara college road Ganapathi nagar chikkabanavara bangaluru 90",
    "Longitude": 77.49667111,
    "Latitude": 13.07987147
  },
  {
    "Sl No": 3,
    "Location": "no 30 1st main Nisarga layout near abhaiah Naidu road Bangalore 560061",
    "Longitude": 77.54666615,
    "Latitude": 12.91774614
  },
  {
    "Sl No": 4,
    "Location": "shri veerabhadreshwar enterprices",
    "Longitude": 77.63298797,
    "Latitude": 13.05777931
  },
  {
    "Sl No": 5,
    "Location": "no9 ramana sri nelaya chucha gatta",
    "Longitude": 77.57323075,
    "Latitude": 12.88579832
  },
  {
    "Sl No": 6,
    "Location": "NO 1031/A 1ST MAIN ROAD 4TH BLOCK DR RAJKUMAR ROAD RAJAJINAGAR BANGALORE 560010",
    "Longitude": 77.56003595,
    "Latitude": 12.98681658
  },
  {
    "Sl No": 7,
    "Location": "MainMagadi main road sugadhagate viganeshavaranagar bustop",
    "Longitude": 77.50004265,
    "Latitude": 12.9938474
  },
  {
    "Sl No": 8,
    "Location": "No 343/1B.v Reddy corners 10th main 100ft road HRBR layout banaswadi Bangalore Karnataka",
    "Longitude": 77.64994796,
    "Latitude": 13.01541298
  },
  {
    "Sl No": 9,
    "Location": "23 18mani road j c Nagar kurubarahaill bangloure 560086",
    "Longitude": 77.53168702,
    "Latitude": 13.00165454
  },
  {
    "Sl No": 10,
    "Location": "No 301 16th cross outer ring road jp nagar  5th phase bangalore 560078",
    "Longitude": 77.59200386,
    "Latitude": 12.90616048
  },
  {
    "Sl No": 11,
    "Location": "Harohalli Nagenahalli Yelahanka Bengalore 560064",
    "Longitude": 77.57681217,
    "Latitude": 13.13175853
  },
  {
    "Sl No": 12,
    "Location": "No 301 16th cross outer ring road jp nagar  5th phase bangalore 560078",
    "Longitude": 77.59204101,
    "Latitude": 12.90615463
  },
  {
    "Sl No": 13,
    "Location": "No 465 tank bund Road 17th Cross malleshwaram West near orian mall",
    "Longitude": 77.55565624,
    "Latitude": 13.00821388
  },
  {
    "Sl No": 14,
    "Location": "no67 12th cross 2ad main srinivas temple mahalakshmi layout",
    "Longitude": 77.54550509,
    "Latitude": 13.00822956
  },
  {
    "Sl No": 15,
    "Location": "No 76/a 11th main cross 1st n block rajajinagar",
    "Longitude": 77.55322985,
    "Latitude": 13.0022687
  },
  {
    "Sl No": 16,
    "Location": "no 5057 c 18 th main Vittal Nagar kumarswamy layout Bangalore 560078",
    "Longitude": 77.55598179,
    "Latitude": 12.90310711
  },
  {
    "Sl No": 17,
    "Location": "obeya vibes",
    "Longitude": 77.64734253,
    "Latitude": 12.9120671
  },
  {
    "Sl No": 18,
    "Location": "arekere",
    "Longitude": 77.60976646,
    "Latitude": 12.88697001
  },
  {
    "Sl No": 19,
    "Location": "#387 14th cross sastri nagar bsk 2nd stage  Bangalore -560028",
    "Longitude": 77.56967926,
    "Latitude": 12.92998886
  },
  {
    "Sl No": 20,
    "Location": "02 SRI SAI COMPLEX  NEAR KARNATAKA  BANK CHIKKATHIRPATHI  ROAD DODDA DUNNASANDRA",
    "Longitude": 77.81991418,
    "Latitude": 12.97354795
  },
  {
    "Sl No": 21,
    "Location": "60 feet road 6th block kormangala",
    "Longitude": 77.61926248,
    "Latitude": 12.93787205
  },
  {
    "Sl No": 22,
    "Location": "226,60 feet road NTI layout 2nd  main road RAJIVE GANDHI NAGARA BANGALORE 97",
    "Longitude": 77.5839398,
    "Latitude": 13.07064875
  },
  {
    "Sl No": 23,
    "Location": "No 94 Haraluru silver County Main Road Kudlu Bengaluru 560068",
    "Longitude": 77.66050446,
    "Latitude": 12.89400365
  },
  {
    "Sl No": 24,
    "Location": "S R S Buliding Abbigere main road  560016",
    "Longitude": 77.53150597,
    "Latitude": 13.06005199
  },
  {
    "Sl No": 25,
    "Location": "BYANAPALA 100FEET ROAD KANAKAPURA ROAD BANSAKARI 6th STAGE",
    "Longitude": 77.53934478,
    "Latitude": 12.87464523
  },
  {
    "Sl No": 26,
    "Location": "NO 6 CROPORATION BUILDING RV ROAD V V PURAM",
    "Longitude": 77.57993316,
    "Latitude": 12.9502964
  },
  {
    "Sl No": 27,
    "Location": "Munagala Residency, Dinnur main road, Seegehalli, Kadugodi\nBangalore-560067\n\nOpposite Renuka Yellamma temple",
    "Longitude": 77.76581067,
    "Latitude": 13.01387766
  },
  {
    "Sl No": 28,
    "Location": "no1/4 ganigarahalli pipeline Yeshwanthpur chikkabanavar post",
    "Longitude": 77.51447796,
    "Latitude": 13.08222576
  },
  {
    "Sl No": 29,
    "Location": "No 10 3rd E main ramaiah layout kacharakanahalli Bangalore 560084",
    "Longitude": 77.63444077,
    "Latitude": 13.01839376
  },
  {
    "Sl No": 30,
    "Location": "no44 vasanthpura main road prasanthi nagar dav school bangalore",
    "Longitude": 77.55563579,
    "Latitude": 12.89451414
  },
  {
    "Sl No": 31,
    "Location": "No 25 ,22 main 50feet road girinagara 3dstage Bangalore 560085",
    "Longitude": 77.54637345,
    "Latitude": 12.94260029
  },
  {
    "Sl No": 32,
    "Location": "146 8th main road byrasandra jayanagar Bangalore  560011",
    "Longitude": 77.59267777,
    "Latitude": 12.93303393
  },
  {
    "Sl No": 33,
    "Location": "No 94 Harluru silver county main road Kudlu",
    "Longitude": 77.66113545,
    "Latitude": 12.8926774
  },
  {
    "Sl No": 34,
    "Location": "744, 80 Feet Rd, Koramangala 4th Block, Koramangala, Bengaluru, Karnataka 560034",
    "Longitude": 77.62999534,
    "Latitude": 12.93376296
  },
  {
    "Sl No": 35,
    "Location": "744, 80 Feet Rd, Koramangala 4th Block, Koramangala, Bengaluru, Karnataka 560034",
    "Longitude": 77.6300691,
    "Latitude": 12.93351494
  },
  {
    "Sl No": 36,
    "Location": "No 443 4th main  shastri nagar  near Muneswara Temple\nBangalore  560028",
    "Longitude": 77.57232081,
    "Latitude": 12.93062464
  },
  {
    "Sl No": 37,
    "Location": "st Thomas road ramaiah layout na char akan ah all I Bangalore 560084",
    "Longitude": 77.63552907,
    "Latitude": 13.01682645
  },
  {
    "Sl No": 38,
    "Location": "No M6 3rd main 8th cross lankminarayanapuram Bangalore 21",
    "Longitude": 77.56304137,
    "Latitude": 12.99372326
  },
  {
    "Sl No": 39,
    "Location": "#1947 11th main A Block 2nd stage Rajajinagar banglore 560010",
    "Longitude": 77.55694605,
    "Latitude": 13.00544173
  },
  {
    "Sl No": 40,
    "Location": "152 2nd main road 1st stage indiranagara bangalore 560038  citi mobike works",
    "Longitude": 77.63863105,
    "Latitude": 12.982345
  },
  {
    "Sl No": 41,
    "Location": "obeya vibes",
    "Longitude": 77.64721713,
    "Latitude": 12.91199716
  },
  {
    "Sl No": 42,
    "Location": "no 68th Shankar mutt road opp Shankapuram police station",
    "Longitude": 77.56973046,
    "Latitude": 12.95323311
  },
  {
    "Sl No": 43,
    "Location": "NO 183 6TH CROSS RK NAGAR HEGED NAGAR BANGALORE",
    "Longitude": 77.63607189,
    "Latitude": 13.07227843
  },
  {
    "Sl No": 44,
    "Location": "No 12/1 1st main road near MS ramaiah college MSR nagar mathikere Bangalore 560054",
    "Longitude": 77.56594486,
    "Latitude": 13.03250469
  },
  {
    "Sl No": 45,
    "Location": "Harohalli Nagenahalli Yelahanka Bengalore 560064",
    "Longitude": 77.57699556,
    "Latitude": 13.13182579
  },
  {
    "Sl No": 46,
    "Location": "14/4 Rv road near minerva circle bangalore\n5600011",
    "Longitude": 77.58018773,
    "Latitude": 12.95445023
  },
  {
    "Sl No": 47,
    "Location": "No 6 Btm 2nd stage Dollars Colony Bangalore 76",
    "Longitude": 77.60387767,
    "Latitude": 12.90629022
  },
  {
    "Sl No": 48,
    "Location": "728 A sector 16th main 5th cross petrol bunk road Yelahanka new town Bangalore 64",
    "Longitude": 77.59006563,
    "Latitude": 13.09871754
  },
  {
    "Sl No": 49,
    "Location": "Harohalli Nagenahalli Yelahanka Bengalore 560064",
    "Longitude": 77.57709078,
    "Latitude": 13.13231816
  },
  {
    "Sl No": 50,
    "Location": "728 A sector 16th main 5th cross petrol bunk road Yelahanka new town Bangalore 64",
    "Longitude": 77.59009145,
    "Latitude": 13.09873714
  },
  {
    "Sl No": 51,
    "Location": "04 3rd cross doddanagamangala electronic city phase 2",
    "Longitude": 77.6713369,
    "Latitude": 12.86381001
  },
  {
    "Sl No": 52,
    "Location": "398 7 th mained Yelahanka satellite town",
    "Longitude": 77.60190658,
    "Latitude": 13.10758982
  },
  {
    "Sl No": 53,
    "Location": "No 294 4th main 6 th cross K N extention yasvanthpura Bangalore",
    "Longitude": 77.55785369,
    "Latitude": 13.02148532
  },
  {
    "Sl No": 54,
    "Location": "Teachers conony  banashankari 2 nd stage bangalore 70",
    "Longitude": 77.56684508,
    "Latitude": 12.91429585
  },
  {
    "Sl No": 55,
    "Location": "179) 2 , hari nagar main road, near vinayaka theater, bangalore",
    "Longitude": 77.56898716,
    "Latitude": 12.87554798
  },
  {
    "Sl No": 56,
    "Location": "No.1181, Ground Floor, 24th Main, 24th Cross, Parangipalya, Hsr Layout Sector 2, Bangalore - 560102 (Near Mariamma Temple)",
    "Longitude": 77.64900047,
    "Latitude": 12.90761509
  },
  {
    "Sl No": 57,
    "Location": "#60/61, 7th main, shop no.1, poornapragna Layout, vishnuvardhan cricle bangalore 560061",
    "Longitude": 77.53442488,
    "Latitude": 12.90874909
  },
  {
    "Sl No": 58,
    "Location": "10th Cross 2nd Main BHEL Layout Chikkabettahalli Vidyaranyapura",
    "Longitude": 77.54962094,
    "Latitude": 13.09191536
  },
  {
    "Sl No": 59,
    "Location": "64, 4th Cross Rd, Brindavan Layout, Ashirvad Colony, Horamavu, Bengaluru, Karnataka 560016, India",
    "Longitude": 77.66231294,
    "Latitude": 13.02564679
  },
  {
    "Sl No": 60,
    "Location": "Thirmalashteeyhalli SLV PG Road",
    "Longitude": 77.78398132,
    "Latitude": 12.98794174
  },
  {
    "Sl No": 61,
    "Location": "18 Ganesha temple road Anandpura tc Palya kr puram bangalore 36",
    "Longitude": 77.69204711,
    "Latitude": 13.02219867
  },
  {
    "Sl No": 62,
    "Location": "171, 3rd Main Road, Kengeri Satellite Town, Bengaluru - 560060",
    "Longitude": 77.48406982,
    "Latitude": 12.92403221
  },
  {
    "Sl No": 63,
    "Location": "3082/30/1 10th cross road c block gayathrinagar  bangalore  560021",
    "Longitude": 77.56101989,
    "Latitude": 12.99770641
  },
  {
    "Sl No": 64,
    "Location": "31 ANJANEYA TEMPLE TRUST KENGUTTE SIGNAL MALLATHALLI",
    "Longitude": 77.50388324,
    "Latitude": 12.96107943
  },
  {
    "Sl No": 65,
    "Location": "#234 anubanvanagar nagarabhavi main road near bank colony bus stand. Bangalore 560072",
    "Longitude": 77.5233612,
    "Latitude": 12.96496677
  },
  {
    "Sl No": 66,
    "Location": "2350,2nd Main 4th Cross, RPCLAYOUT, Vijayanagar 2nd Stage Humpinagar, Bangalore 560104",
    "Longitude": 77.53855582,
    "Latitude": 12.96693934
  },
  {
    "Sl No": 67,
    "Location": "ring road, nagawara, opp manyata tech park\nbangalore 560045",
    "Longitude": 77.61942375,
    "Latitude": 13.04099
  },
  {
    "Sl No": 68,
    "Location": "No 6 Beside BBMP office Thanisandra Bangaluru 560077",
    "Longitude": 77.63339233,
    "Latitude": 13.05613803
  },
  {
    "Sl No": 69,
    "Location": "no 191 sc road nettajalappa circle  basavanagudi 560004",
    "Longitude": 77.57233154,
    "Latitude": 12.93971859
  },
  {
    "Sl No": 70,
    "Location": "No 671/C, 60 feet road, AECS Layout, A block, Singasandra, Bangalore, 560068",
    "Longitude": 77.64635078,
    "Latitude": 12.88546103
  },
  {
    "Sl No": 71,
    "Location": "mallikarjuna #12 3 main road near Sri Ram temple Dwarakanagar\nYelahanka Bangalore 560063",
    "Longitude": 77.61796569,
    "Latitude": 13.12263488
  },
  {
    "Sl No": 72,
    "Location": "No 47/8 K S Building K S Road Jalahalli Village Bangalore",
    "Longitude": 77.5481313,
    "Latitude": 13.04716517
  },
  {
    "Sl No": 73,
    "Location": "no 28 lakshmi nilaya Doddagubbi Bangalore Karnataka 560077",
    "Longitude": 77.67094421,
    "Latitude": 13.07037734
  },
  {
    "Sl No": 74,
    "Location": "Shop No.7,100 Feet Road, Banaswadi Main Road, Bangalore - 560043",
    "Longitude": 77.64879561,
    "Latitude": 13.01367546
  },
  {
    "Sl No": 75,
    "Location": "#14 RJ Complex Yelahanka main road M.S Palya Bangalore",
    "Longitude": 77.55037689,
    "Latitude": 13.08247947
  },
  {
    "Sl No": 76,
    "Location": "#28, Behind Opcoms, Near UAS Layout, Bengaluru - 560094",
    "Longitude": 77.57597351,
    "Latitude": 13.04089355
  },
  {
    "Sl No": 77,
    "Location": "35 BG road near RTO Office opp BDA Layout 80 feet road devarachikkanahalli",
    "Longitude": 77.6132369,
    "Latitude": 12.88374907
  },
  {
    "Sl No": 78,
    "Location": "#27, unnati Residential, 1st A cross Abdul kalam street, Maragondanahalli",
    "Longitude": 77.69512176,
    "Latitude": 13.04160594
  },
  {
    "Sl No": 79,
    "Location": "44 13nth main road 1st block GMT layout vidyaranyapura Bangalore 560097",
    "Longitude": 77.56164126,
    "Latitude": 13.07760926
  },
  {
    "Sl No": 80,
    "Location": "No 356 Dr Rajkumar road 6th block Rajajinagar Bangalore 560010",
    "Longitude": 77.55295459,
    "Latitude": 12.97742933
  },
  {
    "Sl No": 81,
    "Location": "#32 Gurukrupa 1st main road Havanur Layout Nagasandra post bangalore 560073",
    "Longitude": 77.50428657,
    "Latitude": 13.04957922
  },
  {
    "Sl No": 82,
    "Location": "NO 9 3RB MAIN ROAD 6 TH CROSS HOSAHALLI VIJAYANAGAR",
    "Longitude": 77.54167255,
    "Latitude": 12.96868961
  },
  {
    "Sl No": 83,
    "Location": "7th main devaracgikkanahalli bagur road 560076 \n near  PRABHU jewellers",
    "Longitude": 77.61834952,
    "Latitude": 12.88765668
  },
  {
    "Sl No": 84,
    "Location": "no22 1stb main road  sudhama  nagar lalbagh road cross near textile co-op bank bangalore",
    "Longitude": 77.5886045,
    "Latitude": 12.95676748
  },
  {
    "Sl No": 85,
    "Location": "No 40/1 Ayyappa Nilaya, Rathna Vilasa Road, BASAVANAGUDI, Bengaluru 5600004",
    "Longitude": 77.57205426,
    "Latitude": 12.93834194
  },
  {
    "Sl No": 86,
    "Location": "817,9179 1st E Main road 8th Cross 2nd phase girinagar Bangalore 560085",
    "Longitude": 77.54268646,
    "Latitude": 12.93950462
  },
  {
    "Sl No": 87,
    "Location": "no22 1stb main road  sudhama  nagar lalbagh road cross near textile co-op bank bangalore",
    "Longitude": 77.58859075,
    "Latitude": 12.95679264
  },
  {
    "Sl No": 88,
    "Location": "102, Chawla Regency, HDFC Bank building basement, Mosque road, Frazer town, Banglore - 560005\n\nOpposite Cafe Coffee day",
    "Longitude": 77.61367034,
    "Latitude": 12.99613094
  },
  {
    "Sl No": 89,
    "Location": "214, 10th Cross Rd, A Block, Milk Colony, Subramanyanagar,2 State, Rajajinagar, Bengaluru, Karnataka 560055, India",
    "Longitude": 77.55975734,
    "Latitude": 13.00469625
  },
  {
    "Sl No": 90,
    "Location": "no 20 4th cross rajeshwarinagar laggere Peenya",
    "Longitude": 77.51571144,
    "Latitude": 13.01487758
  },
  {
    "Sl No": 91,
    "Location": "No 119/124, Vigneshwara Nagara Bus Stop, Sunkadakatte, Bangalore 5600091\n\nNearest Landmark:- Vigneshwara nagara Bus Stop",
    "Longitude": 77.49974995,
    "Latitude": 12.99337827
  },
  {
    "Sl No": 92,
    "Location": "No 119/124, Vigneshwara Nagara Bus Stop, Sunkadakatte, Bangalore 5600091\n\nNearest Landmark:- Vigneshwara nagara Bus Stop",
    "Longitude": 77.49976269,
    "Latitude": 12.99338285
  },
  {
    "Sl No": 93,
    "Location": "No 132 1St main 3rd stage 4th block Sarada colony basaveshwaranagar Bangalore 79",
    "Longitude": 77.53456939,
    "Latitude": 12.98836514
  },
  {
    "Sl No": 94,
    "Location": "No 6, H Muniraju Building, Anchepalya, Nagasandra Post, Bangalore 560073\n\nNearest Landmark:- Opp HDFC Bank ATM",
    "Longitude": 77.48079445,
    "Latitude": 13.05770272
  },
  {
    "Sl No": 95,
    "Location": "vaastu bhoomi layout seegahalli",
    "Longitude": 77.76247501,
    "Latitude": 13.01671244
  },
  {
    "Sl No": 96,
    "Location": "#32, 10th main 100 feet road next to neyer by  indusind bank banaswadi Bangalore 560043",
    "Longitude": 77.6481663,
    "Latitude": 13.01294405
  },
  {
    "Sl No": 97,
    "Location": "Sainik Manzil Hno 7Bar2 1st Main 2nd Cross MSR Nagar Bangalore 560054",
    "Longitude": 77.56587948,
    "Latitude": 13.03315862
  },
  {
    "Sl No": 98,
    "Location": "32,14th cross, 22nd Main Road Chikkalasandra Bengaluru 560061",
    "Longitude": 77.55193328,
    "Latitude": 12.91798305
  },
  {
    "Sl No": 99,
    "Location": "#131/1 1st main road 3 Rd stage 4th block sharadha colony basaveshwarnagar",
    "Longitude": 77.53440745,
    "Latitude": 12.98859742
  },
  {
    "Sl No": 100,
    "Location": "NAGARBHAVI",
    "Longitude": 77.49723203,
    "Latitude": 12.97349535
  },
  {
    "Sl No": 101,
    "Location": "626 MEDAHALLI EXTN VIRGONAGARA POST BANGALORE",
    "Longitude": 77.71899506,
    "Latitude": 13.02496082
  },
  {
    "Sl No": 102,
    "Location": "No 47/8 K S Building K S Road Jalahalli village Bangalore",
    "Longitude": 77.54815008,
    "Latitude": 13.04714492
  },
  {
    "Sl No": 103,
    "Location": "No 352 Dr Rajkumar road 6th Block Rajajinagar Bangalore 56001",
    "Longitude": 77.55305249,
    "Latitude": 12.97774395
  },
  {
    "Sl No": 104,
    "Location": "no.40,rajas,4th cross,1st main road,anjanappa layout k narayanapura,kothanur,bengaluru",
    "Longitude": 77.64718627,
    "Latitude": 13.06576824
  },
  {
    "Sl No": 105,
    "Location": "#33, Mathrushree, 1st cross, Vaishnavi layout, Subramanyapura main road, Uttarahalli, Bangalore 560061",
    "Longitude": 77.54388939,
    "Latitude": 12.90402381
  },
  {
    "Sl No": 106,
    "Location": "No 537 42nd 4th cross 4th block Rajajinagar Bangalore",
    "Longitude": 77.55732391,
    "Latitude": 12.98942299
  },
  {
    "Sl No": 107,
    "Location": "No 104,East Park Road, 8th Cross Malleshwara, Bengaluru 560003\n\nNearest Landmark:- Behind India Sweet House",
    "Longitude": 77.57091522,
    "Latitude": 12.99955272
  },
  {
    "Sl No": 108,
    "Location": "No 119/124, Vigneshwara Nagara Bus Stop, Sunkadakatte, Bangalore 5600091\n\nNearest Landmark:- Vigneshwara nagara Bus Stop",
    "Longitude": 77.49975585,
    "Latitude": 12.99352264
  },
  {
    "Sl No": 109,
    "Location": "#16,3rd Cross Road Maruthi Nagar, Kamakshipalya Bangalore",
    "Longitude": 77.52514444,
    "Latitude": 12.9897291
  },
  {
    "Sl No": 110,
    "Location": "NO 11 1ST CROSS SIDDARAMAPPA LAYOUT LINGARAJAPURAM BANGALORE 84",
    "Longitude": 77.62533299,
    "Latitude": 13.00831646
  },
  {
    "Sl No": 111,
    "Location": "no.62/1, 2nd floor, 3rd cross, lalbagh road",
    "Longitude": 77.58833527,
    "Latitude": 12.96022306
  },
  {
    "Sl No": 112,
    "Location": "No 307 kariyamapalya oops muthoot finance hennur main road lingarajapuram Bangalore  560084",
    "Longitude": 77.62561328,
    "Latitude": 13.01399003
  },
  {
    "Sl No": 113,
    "Location": "No 119/124, Vigneshwara Nagara Bus Stop, Sunkadakatte, Bangalore 5600091\n\nNearest Landmark:- Vigneshwara nagara Bus Stop",
    "Longitude": 77.49985221,
    "Latitude": 12.9934789
  },
  {
    "Sl No": 114,
    "Location": "No 15, 6th Main Road, Meenakshi Nagar, Kamakshi Palya, Bengaluru 560079\n\nNearest Landmark:- Sharadha Colony Bus Stop Road",
    "Longitude": 77.53288663,
    "Latitude": 12.9871606
  },
  {
    "Sl No": 115,
    "Location": "No 38/A, 1st \"F\" Cross, 3rd Stage, 4th Block, Basaveshwara nagar, Bangalore 560079\n\nNearest Landmark:- Banion tree Park road",
    "Longitude": 77.53498278,
    "Latitude": 12.98834684
  },
  {
    "Sl No": 116,
    "Location": "No 7/2, 1st Main, 2nd Cross, MSR Nagar, Bangalore 560054",
    "Longitude": 77.56589356,
    "Latitude": 13.0327157
  },
  {
    "Sl No": 117,
    "Location": "#83,13th main,2nd cross,HMT Layout, Vidyaranyapura, Bangalore- 560097",
    "Longitude": 77.5614582,
    "Latitude": 13.07718013
  },
  {
    "Sl No": 118,
    "Location": "no 115, SFS 407, 3rd cross, 5th Phase , Yelahanka New Town, Bangalore 560064\n\nLand Mark : Near Swamy Vivekananda Park gate",
    "Longitude": 77.57227286,
    "Latitude": 13.10264953
  },
  {
    "Sl No": 119,
    "Location": "No 137, 5th Cross, Basaveshwara Layout, BEML, Rajarajeshwari Nagar Bengaluru 560098",
    "Longitude": 77.52516174,
    "Latitude": 12.91660976
  },
  {
    "Sl No": 120,
    "Location": "no 8 k k layout nagarbhavi near DR B R AMBEDKAR COLLEGE iti layout main road",
    "Longitude": 77.50254549,
    "Latitude": 12.96774995
  },
  {
    "Sl No": 121,
    "Location": "48/3 6th a cross kodigehalli main road tata nagar Bangalore 560092",
    "Longitude": 77.57588144,
    "Latitude": 13.05450979
  },
  {
    "Sl No": 122,
    "Location": "#53, Aashirvaad, 3rd cross, Dee Enclave layout, behind Godwin public school, kodigehalli, Sahakara nagar post, Bangalore 560092.",
    "Longitude": 77.58254103,
    "Latitude": 13.05760082
  },
  {
    "Sl No": 123,
    "Location": "764 Union Bank Circle AGB Layout Chikkasandra",
    "Longitude": 77.50598911,
    "Latitude": 13.07078232
  },
  {
    "Sl No": 124,
    "Location": "8th mile circle hesaraghatta main road T dasarahalli banglore 57",
    "Longitude": 77.50767152,
    "Latitude": 13.04663344
  },
  {
    "Sl No": 125,
    "Location": "No 48 8th main Bhuvanashwari nagar T DasaraHalli Bangalore 57",
    "Longitude": 77.50822741,
    "Latitude": 13.05152683
  },
  {
    "Sl No": 126,
    "Location": "vidyamanaya nagar main road, near soundraya vidya manaya vidya Kendra",
    "Longitude": 77.48955488,
    "Latitude": 13.00781175
  },
  {
    "Sl No": 127,
    "Location": "No 41, 7th main, Shankar Nagar, Mahalakshmi layout(Near Rich Grill hotel)",
    "Longitude": 77.54287116,
    "Latitude": 13.01539207
  },
  {
    "Sl No": 128,
    "Location": "No45 rajiv gandhi nagar Hanumantha nagar main road near gangothri school Bangalore 91",
    "Longitude": 77.50564076,
    "Latitude": 12.98444505
  },
  {
    "Sl No": 129,
    "Location": "No 225 Hm road Kalyan nagar post near Hennur bus Dipo Bangalore 560043",
    "Longitude": 77.63220179,
    "Latitude": 13.02726304
  },
  {
    "Sl No": 130,
    "Location": "48/3 6th a cross kodigehalli main road tata nagar Bangalore 560092",
    "Longitude": 77.57562495,
    "Latitude": 13.05458295
  },
  {
    "Sl No": 131,
    "Location": "NH 7 YALAHANKA BYPASS SERVICE ROAD NEAR KOGILU CIRCLE BANGALORE",
    "Longitude": 77.60080352,
    "Latitude": 13.10336859
  },
  {
    "Sl No": 132,
    "Location": "#25 lakshmipur main road dombarahalli bus stop near madanayakanahalli Bangalore 562162",
    "Longitude": 77.45925832,
    "Latitude": 13.05186782
  },
  {
    "Sl No": 133,
    "Location": "152,2nd Main road 1st stage Indiranagar\nBangalore 560038",
    "Longitude": 77.63867899,
    "Latitude": 12.98180626
  },
  {
    "Sl No": 134,
    "Location": "TELECOM 2ND CROSS SRIRAMPURA BANGALORE 64",
    "Longitude": 77.61890843,
    "Latitude": 13.06811669
  },
  {
    "Sl No": 135,
    "Location": "114 4th cross rukmininagar nelagadaranahalli main road nagasandra post",
    "Longitude": 77.50481698,
    "Latitude": 13.04230795
  },
  {
    "Sl No": 136,
    "Location": "No 41/A Tyagaraja Nagar gururaj layout vidyapeeta circle",
    "Longitude": 77.56277885,
    "Latitude": 12.93315647
  },
  {
    "Sl No": 137,
    "Location": "No 19 N S palya B T M 2nd  stage  Bangalore 560076",
    "Longitude": 77.60323561,
    "Latitude": 12.91165501
  },
  {
    "Sl No": 138,
    "Location": "6TH CROSS NEAR ROYAL SERVICE STATION JAKKUR LOYOUT BANGALORE",
    "Longitude": 77.60187774,
    "Latitude": 13.07265955
  },
  {
    "Sl No": 139,
    "Location": "no1 vst road 3 rd cross sonnappa layout  lngarajapura don bosco Church road opp sri devi photo photo studio",
    "Longitude": 77.62924633,
    "Latitude": 13.00775915
  },
  {
    "Sl No": 140,
    "Location": "1754 thimmegowda building 1st main Kalpana nagara T Dasarahalli Bangalore-560057",
    "Longitude": 77.51527056,
    "Latitude": 13.05086413
  },
  {
    "Sl No": 141,
    "Location": "17 andrali main road near acharaya College bus stop andrali",
    "Longitude": 77.48825769,
    "Latitude": 13.00223212
  },
  {
    "Sl No": 142,
    "Location": "channasandra layout vishnuvardhan road uttarahalli main road",
    "Longitude": 77.51713704,
    "Latitude": 12.90344732
  },
  {
    "Sl No": 143,
    "Location": "near dream apartment uttrahalli Main road kengri 560060",
    "Longitude": 77.48637646,
    "Latitude": 12.91091709
  },
  {
    "Sl No": 144,
    "Location": "# 243 6th MAIN KALIKAMBA TEMPLE ROAD,\nKENGERI UPANAGARA",
    "Longitude": 77.48208618,
    "Latitude": 12.9225912
  },
  {
    "Sl No": 145,
    "Location": "No 20 Ring road rajarajeswari layout nagadevanahalku bangalore 560056",
    "Longitude": 77.49314535,
    "Latitude": 12.94032997
  },
  {
    "Sl No": 146,
    "Location": "#127/B 60 FEET ROAD Thimmaiah Road Manjunathnagar  Bangalore 10",
    "Longitude": 77.54581052,
    "Latitude": 12.9927605
  },
  {
    "Sl No": 147,
    "Location": "#127/B 60 feet road Thimmaiah Road Manjunathnagar Bangalore 10",
    "Longitude": 77.54584908,
    "Latitude": 12.99266968
  },
  {
    "Sl No": 148,
    "Location": "No 15, 6th Main Road, Meenakshi Nagar, Kamakshi Palya, Bengaluru 560079\n\nNearest Landmark:- Sharadha Colony Bus Stop Road",
    "Longitude": 77.53292083,
    "Latitude": 12.98714256
  },
  {
    "Sl No": 149,
    "Location": "28 3 K I A F B COMPLEX TVS CROSS INDUSTRIAL AREA BANGALORE",
    "Longitude": 77.52005226,
    "Latitude": 13.02838801
  },
  {
    "Sl No": 150,
    "Location": "#31, LKR nagar, Lotegollahalli, near LN vidyamandir school, RMV 2ndstage, Bengaluru 560094,",
    "Longitude": 77.56828743,
    "Latitude": 13.05185247
  },
  {
    "Sl No": 151,
    "Location": "Varthur Rd, Silver Springs Layout, Munnekollal, Bengaluru, Karnataka 560066",
    "Longitude": 77.71617639,
    "Latitude": 12.95365527
  },
  {
    "Sl No": 152,
    "Location": "No 469 CHANDRASHEKARN BLOCK BEML 3RD STAGE NEAR GOLD GYM RR NAGAR BANGALORE 560098",
    "Longitude": 77.52105072,
    "Latitude": 12.92202543
  },
  {
    "Sl No": 153,
    "Location": "Sri Balaji tent house, Vidyamanaya nagar main road, near sri soundraya vidya manaya vidya Kendra. Bangalore, 91",
    "Longitude": 77.48944091,
    "Latitude": 13.00778102
  },
  {
    "Sl No": 154,
    "Location": "48,20 3rd Cross ssi area 5th block rajajinagar bangalore 10",
    "Longitude": 77.55818691,
    "Latitude": 12.9822986
  },
  {
    "Sl No": 155,
    "Location": "#2 2nd main road woc road shivanagar near dobhighat signal rajaji nagar bangalore 10",
    "Longitude": 77.54989624,
    "Latitude": 12.98795223
  },
  {
    "Sl No": 156,
    "Location": "car edge 299 3r b main road  8th block Koramangala . near Narayana  school",
    "Longitude": 77.61362951,
    "Latitude": 12.94266368
  },
  {
    "Sl No": 157,
    "Location": "No 2171 3rd C main road ramaiah layout kacharakanahalli Bangalore 560084",
    "Longitude": 77.63353753,
    "Latitude": 13.01832908
  },
  {
    "Sl No": 158,
    "Location": "NO NANJUNDAPPA BUULDING THANISANDRA NEAR MANJUNATHA PALACE OPP LENSCART DR.SRK NAGAR POST BANGALORE 77",
    "Longitude": 77.6321116,
    "Latitude": 13.05540633
  },
  {
    "Sl No": 159,
    "Location": "No 1107 3rd main 8th cross Ramaiah layout kammanhalli Bangalore 560084",
    "Longitude": 77.63421915,
    "Latitude": 13.01826473
  },
  {
    "Sl No": 160,
    "Location": "Munagala Residency Dinnur main road Seegehalli  Kadugodi Whitefield",
    "Longitude": 77.76585225,
    "Latitude": 13.01386949
  },
  {
    "Sl No": 161,
    "Location": "2350, 2nd floor, 4th Cross, RPCLAYOUT, Vijayanagar 2nd Stage, Humpinagar, Bangalore 560104",
    "Longitude": 77.53855884,
    "Latitude": 12.96702527
  },
  {
    "Sl No": 162,
    "Location": "No F378 BEL 1st stage Herahalli Bangalore 91",
    "Longitude": 77.48190119,
    "Latitude": 12.98197516
  },
  {
    "Sl No": 163,
    "Location": "No 108 10th A main road manjunathanagar Bangalore 10",
    "Longitude": 77.54267883,
    "Latitude": 12.98985671
  },
  {
    "Sl No": 164,
    "Location": "No87 8th main road 3red block basaveshwaranagar Bangalore 79",
    "Longitude": 77.54155731,
    "Latitude": 12.99117851
  },
  {
    "Sl No": 165,
    "Location": "No 163, 13th Cross, Srinivas Nagar, P&T Layout, Pipeline Road, Sunkadkatte, Bangalore 560091\n\nNearest Landmark:- Near Ganesha Temple",
    "Longitude": 77.51130793,
    "Latitude": 12.99388465
  },
  {
    "Sl No": 166,
    "Location": "#27/34, 80 FEET RING ROAD, NEAR RK MRP WINES, NAGADEVANAHALLI,KEMPEGOWDA LAYOUT",
    "Longitude": 77.49176788,
    "Latitude": 12.93361854
  },
  {
    "Sl No": 167,
    "Location": "420 14th cross B S K 2ND STAGE",
    "Longitude": 77.57079161,
    "Latitude": 12.93048151
  },
  {
    "Sl No": 168,
    "Location": "No 2099 8th main D block Rajajinagar Bangalore 560010",
    "Longitude": 77.55613904,
    "Latitude": 13.00113479
  },
  {
    "Sl No": 169,
    "Location": "No747 aiswarya nethajinagar chokasandra T dasarahalli bangalore 57",
    "Longitude": 77.5157386,
    "Latitude": 13.04022112
  },
  {
    "Sl No": 170,
    "Location": "No 11/12 AREHALLI MAIN ROAD AGS LAYOUT ITTAMADU BANGALORE 560061",
    "Longitude": 77.54114381,
    "Latitude": 12.91469912
  },
  {
    "Sl No": 171,
    "Location": "No 905 ITi layout Nagarabhavi 2 nd stage Bangalore 560072",
    "Longitude": 77.50640106,
    "Latitude": 12.96900653
  },
  {
    "Sl No": 172,
    "Location": "No 34 6th cross srirampura Bangalore 21",
    "Longitude": 77.56559014,
    "Latitude": 12.99126882
  },
  {
    "Sl No": 173,
    "Location": "# 5 amruthahalli main road amruthahalli sahakar nagar post Bangalore 5600920",
    "Longitude": 77.60130845,
    "Latitude": 13.06864544
  },
  {
    "Sl No": 174,
    "Location": "No17/3 11th cross 1st K black rajajinagar bangalore 10",
    "Longitude": 77.55285635,
    "Latitude": 13.00227164
  },
  {
    "Sl No": 175,
    "Location": "opp mathrushree kalyana mantapa building heganhalli",
    "Longitude": 77.50480893,
    "Latitude": 13.00179469
  },
  {
    "Sl No": 176,
    "Location": "no1025/2 nd main mc layout vijayanagar  bangalore",
    "Longitude": 77.54066135,
    "Latitude": 12.97833987
  },
  {
    "Sl No": 177,
    "Location": "nagarahole  circle  mahadeshwara nagar",
    "Longitude": 77.49749824,
    "Latitude": 12.99877843
  },
  {
    "Sl No": 178,
    "Location": "heganahali main road near mohan theater",
    "Longitude": 77.5028583,
    "Latitude": 12.99829918
  },
  {
    "Sl No": 179,
    "Location": "Sri vaishnavi enterprises\n540 LIG 707 4TH PHASE 4TH MAIN 4TH cross\nShiva temple road Yelahanka new town\nBangalore 560064",
    "Longitude": 77.57468414,
    "Latitude": 13.10603046
  },
  {
    "Sl No": 180,
    "Location": "No 1084 16th cross 30th Main BSK 2nd stage\nbangalore 560070",
    "Longitude": 77.56230611,
    "Latitude": 12.92812611
  },
  {
    "Sl No": 181,
    "Location": "No 168 2nd cross 10th main BEL layout bharath nagar Bangalore 91",
    "Longitude": 77.47862219,
    "Latitude": 12.98294875
  },
  {
    "Sl No": 182,
    "Location": "no 351 5th main road 3rd stage Basaveshwaranagara near carmal school Bangalore",
    "Longitude": 77.54374656,
    "Latitude": 12.98874999
  },
  {
    "Sl No": 183,
    "Location": "# 19 9th D main pipe line road Vijayanagar Bangalore",
    "Longitude": 77.54579925,
    "Latitude": 12.96905994
  },
  {
    "Sl No": 184,
    "Location": "50 20th cross kavika layout  Bangalore Karnataka 560060",
    "Longitude": 77.48755697,
    "Latitude": 12.92089409
  },
  {
    "Sl No": 185,
    "Location": "#27/34, 80 FEET RING ROAD, NEAR RK MRP WINES, NAGADEVANAHALLI,KEMPEGOWDA LAYOUT",
    "Longitude": 77.49160003,
    "Latitude": 12.93360519
  },
  {
    "Sl No": 186,
    "Location": "No 180/106 pipeline road kurubarahalli main road bangalore 86",
    "Longitude": 77.53708966,
    "Latitude": 13.0007529
  },
  {
    "Sl No": 187,
    "Location": "#7/5 E street 2nd cross gopalpuram magadi road Bangalore 560023",
    "Longitude": 77.56178207,
    "Latitude": 12.97727871
  },
  {
    "Sl No": 188,
    "Location": "no 34 high tenscion road parvathi Nagar laggere",
    "Longitude": 77.51915439,
    "Latitude": 13.01712011
  },
  {
    "Sl No": 189,
    "Location": "B M HIGHWAY OPP KRISHNA PRIYA CONVENTION HALL UTTARAHALLI MAIN ROAD",
    "Longitude": 77.48572435,
    "Latitude": 12.91239324
  },
  {
    "Sl No": 190,
    "Location": "NO 563 1ST MAIN ROAD OPP GANESH GROUND KENGERI SATTELLITE TOWN",
    "Longitude": 77.48097013,
    "Latitude": 12.91334618
  },
  {
    "Sl No": 191,
    "Location": "OPP POLICE STATION NEAR SCHOOL GROUND , MYSORE ROAD KENGERI 560060",
    "Longitude": 77.48093862,
    "Latitude": 12.90961577
  },
  {
    "Sl No": 192,
    "Location": "NO 563 1ST MAIN ROAD OPP GANESH GROUND KENGERI SATTELLITE TOWN",
    "Longitude": 77.48100534,
    "Latitude": 12.91334488
  },
  {
    "Sl No": 193,
    "Location": "1525 Koppa Road  Near Anjaneya Temple  beguru Bengaluru",
    "Longitude": 77.62468121,
    "Latitude": 12.87268774
  },
  {
    "Sl No": 194,
    "Location": "#318, 3rd cross 7th main behind 15f bus stop kumarswamy layout 2nd Stage Banglore 560078",
    "Longitude": 77.55784606,
    "Latitude": 12.90572643
  },
  {
    "Sl No": 195,
    "Location": "49/49 Suresh nilayam, nehru 2nd Main, opposite flag post, near maithri school, udayanagar, Bangalore 560016",
    "Longitude": 77.67411804,
    "Latitude": 12.99144172
  },
  {
    "Sl No": 196,
    "Location": "#100 narasimha layout kanteerava studio road yashwanpur blore 560022",
    "Longitude": 77.5393635,
    "Latitude": 13.01941816
  },
  {
    "Sl No": 197,
    "Location": "no 1/1 obalappa garden K R road bangalore 560082",
    "Longitude": 77.57388305,
    "Latitude": 12.93426609
  },
  {
    "Sl No": 198,
    "Location": "no22 1stb main road  sudhama  nagar lalbagh road cross near textile co-op bank bangalore",
    "Longitude": 77.58862663,
    "Latitude": 12.95678382
  },
  {
    "Sl No": 199,
    "Location": "#131/1 1st main road 3rd stage 4th block sharadha colony basaveshwarnagar",
    "Longitude": 77.53443963,
    "Latitude": 12.98855332
  },
  {
    "Sl No": 200,
    "Location": "Near TCI bus stop tumkur road opp Indian petrol bunk Bangalore 562162",
    "Longitude": 77.46756713,
    "Latitude": 13.05821288
  },
  {
    "Sl No": 201,
    "Location": "#30 HOSAKEREHALLI KEREKODI MAIN ROAD BSK 3RD STAGE BANGALORE",
    "Longitude": 77.5329557,
    "Latitude": 12.93496187
  },
  {
    "Sl No": 202,
    "Location": "No 11/12 AREHALLI MAIN ROAD AGS LAYOUT ITTAMADU BANGALORE 560061",
    "Longitude": 77.54138756,
    "Latitude": 12.91482722
  },
  {
    "Sl No": 203,
    "Location": "No 11/12 AREHALLI MAIN ROAD AGS LAYOUT ITTAMADU BANGALORE 560061",
    "Longitude": 77.5413661,
    "Latitude": 12.91475598
  },
  {
    "Sl No": 204,
    "Location": "no48/49pp layout kengeri main road uttarahalli",
    "Longitude": 77.53580488,
    "Latitude": 12.90875498
  },
  {
    "Sl No": 205,
    "Location": "275/9, 5th a cross, thriveni road, yeshwanthpur,bangalore 560022",
    "Longitude": 77.558815,
    "Latitude": 13.02210426
  },
  {
    "Sl No": 206,
    "Location": "No 1153 5th main A black Malleswaram West post Bangalore 55",
    "Longitude": 77.55595229,
    "Latitude": 13.00805904
  },
  {
    "Sl No": 207,
    "Location": "#31 21 main road JP nagar 7th phase Bangalore 560078",
    "Longitude": 77.58637625,
    "Latitude": 12.8969264
  },
  {
    "Sl No": 208,
    "Location": "152 2nd main road 1st stage Indiranagar Bangalore",
    "Longitude": 77.6388245,
    "Latitude": 12.98240446
  },
  {
    "Sl No": 209,
    "Location": "no 34 high tenscion road parvathi Nagar laggere",
    "Longitude": 77.51915272,
    "Latitude": 13.01705217
  },
  {
    "Sl No": 210,
    "Location": "No87 8th main road 3red block basaveshwaranagar Bangalore 79",
    "Longitude": 77.54138946,
    "Latitude": 12.99123573
  },
  {
    "Sl No": 211,
    "Location": "# 12 C , kanasu manasu,  gnana shakthi nagar , kodigehalli , Bangalore-560091",
    "Longitude": 77.45851135,
    "Latitude": 12.98498344
  },
  {
    "Sl No": 212,
    "Location": "12/1 kanasu manasu gnana shakthi nagar Kodigehalli Bangalore 91",
    "Longitude": 77.4584732,
    "Latitude": 12.98497867
  },
  {
    "Sl No": 213,
    "Location": "Near TCI bus stop tumkur road opp Indian petrol bunk Bangalore 562162",
    "Longitude": 77.46693715,
    "Latitude": 13.05851727
  },
  {
    "Sl No": 214,
    "Location": "No 183 6th cross SRK post rk nagar Bangalore 560077",
    "Longitude": 77.63610642,
    "Latitude": 13.07230455
  },
  {
    "Sl No": 215,
    "Location": "hanumantha Nagar sunkadakatte banglore",
    "Longitude": 77.5055794,
    "Latitude": 12.98445551
  },
  {
    "Sl No": 216,
    "Location": "No 50 2 near saibaba temple kachohalli lakshipura post dasanapura hobali Bangalore 91",
    "Longitude": 77.48410027,
    "Latitude": 13.01478709
  },
  {
    "Sl No": 217,
    "Location": "no 2313, 3 rd block shri m vishaveshavariya layout sonnenalli bagalore 560056",
    "Longitude": 77.48038943,
    "Latitude": 12.9419922
  },
  {
    "Sl No": 218,
    "Location": "No 15 20th cross MRS layout pipeline road sukadakatte Bangalore 91",
    "Longitude": 77.51075807,
    "Latitude": 12.99352888
  },
  {
    "Sl No": 219,
    "Location": "No 15 20th cross MRS layout pipeline road sunkadakatte  Bangalore 91",
    "Longitude": 77.51015994,
    "Latitude": 12.99315286
  },
  {
    "Sl No": 220,
    "Location": "no 229 3rd main 4th cross ramanjaneya nagar chickalsandra Bangalore 560061",
    "Longitude": 77.54729177,
    "Latitude": 12.91175827
  },
  {
    "Sl No": 221,
    "Location": "no 2313,3rd block shri  m vishavesharaiya layout sonnenali  bangalore 560056",
    "Longitude": 77.48043503,
    "Latitude": 12.94203925
  },
  {
    "Sl No": 222,
    "Location": "# No 85 magadi main road Anjana nagar opp vidyalshree international school Bangalore 91",
    "Longitude": 77.48695373,
    "Latitude": 12.98590087
  },
  {
    "Sl No": 223,
    "Location": "No 88/89 Pipe line road Anjana Nagar Magadi Main Road",
    "Longitude": 77.4889829,
    "Latitude": 12.98663298
  },
  {
    "Sl No": 224,
    "Location": "No 88 89 Aajana Nagar Magadi Main Road",
    "Longitude": 77.48889774,
    "Latitude": 12.9866235
  },
  {
    "Sl No": 225,
    "Location": "shiva temple andrali main road Bangalore",
    "Longitude": 77.4903525,
    "Latitude": 13.00893223
  },
  {
    "Sl No": 226,
    "Location": "No 24  4th B cross chamundeshwari nagar Peenya 3rd stage leggere Bangalore 560058",
    "Longitude": 77.5181603,
    "Latitude": 13.01698096
  },
  {
    "Sl No": 227,
    "Location": "#9,munegowda building gundappa road, BasaVeshwara layout Nagashetty halli Near railway gate Bavagaaru  560094",
    "Longitude": 77.57518138,
    "Latitude": 13.04604421
  },
  {
    "Sl No": 228,
    "Location": "#30 HOSAKEREHALLI KEREKODI MAIN ROAD BSK 3RD STAGE BANGALORE",
    "Longitude": 77.53293894,
    "Latitude": 12.93524485
  },
  {
    "Sl No": 229,
    "Location": "no 548 kempanna layout brightway school main road gowdanapalya bangalore 560061",
    "Longitude": 77.55410324,
    "Latitude": 12.90775169
  },
  {
    "Sl No": 230,
    "Location": "#47/48, near nanjappa circle doddabomsandra main road vidyaranyapura post bangalore 560097",
    "Longitude": 77.5600357,
    "Latitude": 13.06679439
  },
  {
    "Sl No": 231,
    "Location": "NO 97 4TH MAIN 7TH CROSS CHAMARAJAPETE",
    "Longitude": 77.56187058,
    "Latitude": 12.95768235
  },
  {
    "Sl No": 232,
    "Location": "tygarajanagara guraj layuot vidyapitta criclebanglore",
    "Longitude": 77.56265882,
    "Latitude": 12.93298786
  },
  {
    "Sl No": 233,
    "Location": "No 8 Thirumenahalli Thanisandra main road Bangalore 560064",
    "Longitude": 77.63523302,
    "Latitude": 13.09659037
  },
  {
    "Sl No": 234,
    "Location": "NO 14 SRI MAHADESHWARA NILAYA RESERVOIR STREET BASVANAGUDI BANGALORE 560078",
    "Longitude": 77.57256757,
    "Latitude": 12.93909611
  },
  {
    "Sl No": 235,
    "Location": "No 14 MAHADESHWARA NILAYA RESERVIR STREET BADAWANAGIDI",
    "Longitude": 77.57259942,
    "Latitude": 12.93911866
  },
  {
    "Sl No": 236,
    "Location": "#30 HOSAKEREHALLI KEREKODI MAIN ROAD BSK 3RD STAGE BANGALORE",
    "Longitude": 77.53293894,
    "Latitude": 12.93524485
  },
  {
    "Sl No": 237,
    "Location": "no 26 1 1st main road chinappa garden Benson town",
    "Longitude": 77.60206751,
    "Latitude": 13.00380671
  },
  {
    "Sl No": 238,
    "Location": "No 11/12 AREHALLI MAIN ROAD AGS LAYOUT ITTAMADU BANGALORE 560061",
    "Longitude": 77.54127122,
    "Latitude": 12.91478735
  },
  {
    "Sl No": 239,
    "Location": "No 11/12 AREHALLI MAIN ROAD AGS LAYOUT ITTAMADU BANGALORE 560061",
    "Longitude": 77.54135806,
    "Latitude": 12.91481121
  },
  {
    "Sl No": 240,
    "Location": "No 905 ITI layout Nagarabhavi 2 nd stage Bengalore 560072",
    "Longitude": 77.50630187,
    "Latitude": 12.96904563
  },
  {
    "Sl No": 241,
    "Location": "30-103/1, hennur 4th cross, kalyan nagar Bangalore 560043",
    "Longitude": 77.63547811,
    "Latitude": 13.0290756
  },
  {
    "Sl No": 242,
    "Location": "No 24  4th B cross chamundeshwari nagar Peenya 3rd stage leggere Bangalore 560058",
    "Longitude": 77.51818084,
    "Latitude": 13.01700019
  },
  {
    "Sl No": 243,
    "Location": "NO 478 RK HEGDENAGAR  MAIN ROAD DR.SRK NAGAR POST BANGALORE 560077",
    "Longitude": 77.63376016,
    "Latitude": 13.07260077
  },
  {
    "Sl No": 244,
    "Location": "152,2nd Main road 1st stage Indiranagar\nBangalore\n560038",
    "Longitude": 77.63879394,
    "Latitude": 12.98225116
  },
  {
    "Sl No": 245,
    "Location": "No 14A 1st A main road 9th cross Opp Sai Baba temple Hosahalli Vijayanagar",
    "Longitude": 77.54158034,
    "Latitude": 12.96821586
  },
  {
    "Sl No": 246,
    "Location": "#56, near has engineering college, mylasandra,  vishnuvardhan road Bangalore 560060",
    "Longitude": 77.50572826,
    "Latitude": 12.90460585
  },
  {
    "Sl No": 247,
    "Location": "#30 HOSAKEREHALLI KEREKODI MAIN ROAD BSK 3RD STAGE BANGALORE",
    "Longitude": 77.53295268,
    "Latitude": 12.93496971
  },
  {
    "Sl No": 248,
    "Location": "131 20th cross 16 main btm layout 2nd stage Bangalore",
    "Longitude": 77.61144451,
    "Latitude": 12.90637094
  },
  {
    "Sl No": 249,
    "Location": "no1017railway parallel road last bus stop kengeri satellite town Bangalore",
    "Longitude": 77.48682238,
    "Latitude": 12.92073985
  },
  {
    "Sl No": 250,
    "Location": "#30/33 kempegowga Layout Arch, outer Ring Road, Laggere,,",
    "Longitude": 77.52538299,
    "Latitude": 13.00217437
  },
  {
    "Sl No": 251,
    "Location": "no1039 slv arcade opp water tank 50 feet road bangalore 560078",
    "Longitude": 77.56166076,
    "Latitude": 12.90845012
  },
  {
    "Sl No": 252,
    "Location": "No 564/A/5, 10th C Main Road, 6th block Rajaji Nagar,   Nearest Landmark:- Karu Maariyamma temple",
    "Longitude": 77.55437884,
    "Latitude": 12.97761294
  },
  {
    "Sl No": 253,
    "Location": "261 7th cross bb road byatarayanpura banglore 560092\nnext to titan show room",
    "Longitude": 77.59280395,
    "Latitude": 13.06764507
  },
  {
    "Sl No": 254,
    "Location": "NO 03 KOGILU MAIN ROAD BELLAHALLI CROSS NEAR UNDER PASS BRIGE YALANKA BANGALORE 64",
    "Longitude": 77.63320595,
    "Latitude": 13.10139363
  },
  {
    "Sl No": 255,
    "Location": "NO 102 DASARAHALLI YELAHANKA MAIN ROAD KEMPAPURA CIRCLE HEBBAL POST BANGALORE 24",
    "Longitude": 77.61030625,
    "Latitude": 13.05803194
  },
  {
    "Sl No": 256,
    "Location": "no57 chick mavalli  rv  road vv puram",
    "Longitude": 77.58018236,
    "Latitude": 12.95093543
  },
  {
    "Sl No": 257,
    "Location": "#14/A 11th main road chandranagar Kumaraswamy layout Bangalore",
    "Longitude": 77.5628858,
    "Latitude": 12.90123971
  },
  {
    "Sl No": 258,
    "Location": "No 50 3rd cross Chowdeshwari nagar pipeline road legeere Bangalore 58",
    "Longitude": 77.5235388,
    "Latitude": 12.99819203
  },
  {
    "Sl No": 259,
    "Location": "Surya Marketing\n05\nSri Vasavi temple Street,Near Panchayat office, Sarjapura\nAnekal,Bangalore ,Karnataka India 562125",
    "Longitude": 77.78691864,
    "Latitude": 12.85999107
  },
  {
    "Sl No": 260,
    "Location": "1525 Koppa Road  Near Anjaneya Temple  beguru Bengaluru",
    "Longitude": 77.62476302,
    "Latitude": 12.87299563
  },
  {
    "Sl No": 261,
    "Location": "254 Nagarahole nagar circle Mahadeshwara nagar Bangalore",
    "Longitude": 77.49705266,
    "Latitude": 12.99949517
  },
  {
    "Sl No": 262,
    "Location": "no278  behind syndicat bank krishnappa building hegnahalli main road sunkadakatte",
    "Longitude": 77.50495147,
    "Latitude": 12.99054527
  },
  {
    "Sl No": 263,
    "Location": "no 62 old no 169 2 nd cross 1stain  D T  Extension KG NAGAR  govipura guttahalli Bangalore 560019",
    "Longitude": 77.56426814,
    "Latitude": 12.95249826
  },
  {
    "Sl No": 264,
    "Location": "#47/48, near nanjappa circle doddabomsandra main road vidyaranyapura post bangalore 560097",
    "Longitude": 77.56004333,
    "Latitude": 13.06660842
  },
  {
    "Sl No": 265,
    "Location": "Balaji Layout Near Advaitha Hundai Service centre Subramanya pura uttarahalli bangalore",
    "Longitude": 77.541893,
    "Latitude": 12.89844322
  },
  {
    "Sl No": 266,
    "Location": "No. 562 56th cross 6th main road 4th black Rajajinagar Bangalore 10",
    "Longitude": 77.55805078,
    "Latitude": 12.98538106
  },
  {
    "Sl No": 267,
    "Location": "NO 563 1ST MAIN ROAD OPP GANESH GROUND KENGERI SATTELLITE TOWN",
    "Longitude": 77.48086217,
    "Latitude": 12.91334194
  },
  {
    "Sl No": 268,
    "Location": "no54 Motostrokes 28th main road 38th across opp jayanagara 9th block",
    "Longitude": 77.59532075,
    "Latitude": 12.92133428
  },
  {
    "Sl No": 269,
    "Location": "2nd main 38th cross 4 rt T block  jayanagara bangalore 560041",
    "Longitude": 77.59172759,
    "Latitude": 12.92194569
  },
  {
    "Sl No": 270,
    "Location": "214/5 Karnataka Layout 2nd stage Kaveri Nagar Bangalore",
    "Longitude": 77.53077775,
    "Latitude": 12.99903488
  },
  {
    "Sl No": 271,
    "Location": "816, 16th cross, 7th block, Jayanagar West, K.R Road, Bangalore-560070",
    "Longitude": 77.5736618,
    "Latitude": 12.92241859
  },
  {
    "Sl No": 272,
    "Location": "159, 25th Main, Judicial Layout, G.K.V.K Post, Bengaluru - 560065",
    "Longitude": 77.58075334,
    "Latitude": 13.08873202
  },
  {
    "Sl No": 273,
    "Location": "#31 21st main road JP nagar 7th phase Bangalore 560078",
    "Longitude": 77.58637055,
    "Latitude": 12.89692378
  },
  {
    "Sl No": 274,
    "Location": "No 644 29th A main corparation colony jayanagar 9th block",
    "Longitude": 77.5957898,
    "Latitude": 12.9204647
  },
  {
    "Sl No": 275,
    "Location": "8 th main 8 th cross 2nd block jayanagar banglore",
    "Longitude": 77.58288905,
    "Latitude": 12.93961828
  },
  {
    "Sl No": 276,
    "Location": "No 19 N S palya B T M 2nd  stage Bangalore 560073",
    "Longitude": 77.60326478,
    "Latitude": 12.91163115
  },
  {
    "Sl No": 277,
    "Location": "No 1252 hennur main road opp campus crusade kacharakanahalli Bangalore",
    "Longitude": 77.62868139,
    "Latitude": 13.01472176
  },
  {
    "Sl No": 278,
    "Location": "no 1583,east end road, near Rama mandir, 9thblock, jayanagar, Bangalore _69",
    "Longitude": 77.59698607,
    "Latitude": 12.91970655
  },
  {
    "Sl No": 279,
    "Location": "No 96, Sai Garden, Vidyaranyapura, Bangalore 560097\n\nNearest Landmark:- Sriram Swagruha Apartment",
    "Longitude": 77.55076725,
    "Latitude": 13.07875849
  },
  {
    "Sl No": 280,
    "Location": "no 44 4th block d group employees layout",
    "Longitude": 77.48397521,
    "Latitude": 13.00091919
  },
  {
    "Sl No": 281,
    "Location": "No 1153 5th main A black Malleswaram West post Bangalore 55",
    "Longitude": 77.55593787,
    "Latitude": 13.00803846
  },
  {
    "Sl No": 282,
    "Location": "No87 8th main road 3red block basaveshwaranagar Bangalore 79",
    "Longitude": 77.54135894,
    "Latitude": 12.99100971
  },
  {
    "Sl No": 283,
    "Location": "#999/3 sai nivas 5th a cross road outer ring road 1st Block hrbr layout kalyan nagar Bangalore -560043",
    "Longitude": 77.65221405,
    "Latitude": 13.02080821
  },
  {
    "Sl No": 284,
    "Location": "no 67 12cross 2main srinivas temple mahalakshmi layout",
    "Longitude": 77.54550509,
    "Latitude": 13.00822956
  },
  {
    "Sl No": 285,
    "Location": "40/3/3 near Bangalore one uttrahalli Bangalore 560061",
    "Longitude": 77.54346996,
    "Latitude": 12.90461893
  },
  {
    "Sl No": 286,
    "Location": "Opp Kaveri Water Tank A Narayanapura Main road Bangalore 560016",
    "Longitude": 77.67744445,
    "Latitude": 12.99486446
  },
  {
    "Sl No": 287,
    "Location": "#45, 10th cross, 6th block Rajajinagar, Bangalore 560010",
    "Longitude": 77.55607668,
    "Latitude": 12.97923081
  },
  {
    "Sl No": 288,
    "Location": "25 26 59 cross  5 th block Rajajinagar banglore 560010",
    "Longitude": 77.55290564,
    "Latitude": 12.9845104
  },
  {
    "Sl No": 289,
    "Location": "80, 11th cross, Balaji layout, Hegde Nagar",
    "Longitude": 77.62957993,
    "Latitude": 13.07406649
  },
  {
    "Sl No": 290,
    "Location": "No.19,3rd cross magadi road Bangalore-560023\n\nNearest Landmark:- Tilak Memorial English School",
    "Longitude": 77.56122589,
    "Latitude": 12.97395038
  },
  {
    "Sl No": 291,
    "Location": "28 3 K I A DB COMPLEX TVS CROSS INDUSTRIAL AREA BANGALORE",
    "Longitude": 77.52001706,
    "Latitude": 13.02846053
  },
  {
    "Sl No": 292,
    "Location": "#25/1 2nd main ashta Lakshmi layout JP Nagar 6th phase Bangalore 560078",
    "Longitude": 77.58237457,
    "Latitude": 12.90150547
  },
  {
    "Sl No": 293,
    "Location": "no 1347 10th Cross 1st E main road Kengeri Satellite town Bangalore Karnataka 560060",
    "Longitude": 77.48808033,
    "Latitude": 12.92434853
  },
  {
    "Sl No": 294,
    "Location": "No 356 Dr Rajkumar road 6th block Rajajinagar Bangalore 560010",
    "Longitude": 77.55295727,
    "Latitude": 12.97739175
  },
  {
    "Sl No": 295,
    "Location": "#23 7th main ns palya btm layout 2nd stage Bangalore 560076",
    "Longitude": 77.60602569,
    "Latitude": 12.90618515
  },
  {
    "Sl No": 296,
    "Location": "manthri paradise EV station Near club house",
    "Longitude": 77.59959411,
    "Latitude": 12.89099693
  },
  {
    "Sl No": 297,
    "Location": "183 shakthihill resorts pvt Ltd of mysore road BEML ?yout 4th stage RR nagar Bangalore 98",
    "Longitude": 77.52826754,
    "Latitude": 12.90968963
  },
  {
    "Sl No": 298,
    "Location": "#22 paramahamsa yogananda road indiranagar 560038",
    "Longitude": 77.63658251,
    "Latitude": 12.96748138
  },
  {
    "Sl No": 299,
    "Location": "#7, 9th b main road BTM layout 1st",
    "Longitude": 77.60572671,
    "Latitude": 12.91801247
  },
  {
    "Sl No": 300,
    "Location": "666, BSK 3rd Stage, 2nd Main, 2nd phase, 7th block. 3rd house from Balaji Medicals",
    "Longitude": 77.54123032,
    "Latitude": 12.93375217
  },
  {
    "Sl No": 301,
    "Location": "No 14&15, sy no 35/2 , konappana Agrahara village, Near Hosur road, Electronic city phase 2 , Bengaluru - 560100",
    "Longitude": 77.67203427,
    "Latitude": 12.84830617
  },
  {
    "Sl No": 302,
    "Location": "No 42, 3rd cross, Muneshwara nagar, bandepalya main road, bommanahalli, Bengaluru,560068",
    "Longitude": 77.64000099,
    "Latitude": 12.89864709
  },
  {
    "Sl No": 303,
    "Location": "18 16 main Devarachikkanahalli opp stone pork",
    "Longitude": 77.61802263,
    "Latitude": 12.88476095
  },
  {
    "Sl No": 304,
    "Location": "183 shakthihill resorts pvt Ltd of mysore Road BEML layout 4th stage RR nagar Bangalore 98",
    "Longitude": 77.52896524,
    "Latitude": 12.91065892
  },
  {
    "Sl No": 305,
    "Location": "No 694, 5th cross, Mahalakshmi layout, Bangalore 560086\n\nNearest landmark:- Behind Mahalakshmi layout residents forum",
    "Longitude": 77.54562847,
    "Latitude": 13.01122872
  },
  {
    "Sl No": 306,
    "Location": "C-73, M.R Automobiles,Kanteerava Studio Main Road,DDUTTL\nLandmark: Opposite Kempegowda Statue and MM  Bar and Restaurant",
    "Longitude": 77.53700256,
    "Latitude": 13.02071571
  },
  {
    "Sl No": 307,
    "Location": "No 352 Dr Rajkumar road 6th Block Rajajinagar Bangalore 560010",
    "Longitude": 77.55303774,
    "Latitude": 12.97776486
  },
  {
    "Sl No": 308,
    "Location": "House No.31, 1st Main Road, Vinayaka Layout, Medarahalli, Chikkabanavara PO, Bengaluru - 560090",
    "Longitude": 77.51735027,
    "Latitude": 13.07100245
  },
  {
    "Sl No": 309,
    "Location": "No 356 Dr Rajkumar road 6th block Rajajinagar bangaluru 560010",
    "Longitude": 77.55299951,
    "Latitude": 12.97741495
  },
  {
    "Sl No": 310,
    "Location": "188, 3rd Cross Rd",
    "Longitude": 77.53940105,
    "Latitude": 13.00847947
  },
  {
    "Sl No": 311,
    "Location": "no 74 thimmaiah road basaveshwaranagar",
    "Longitude": 77.54568446,
    "Latitude": 12.99108587
  },
  {
    "Sl No": 312,
    "Location": "80 ft road hosakerehalli",
    "Longitude": 77.54475139,
    "Latitude": 12.93233497
  },
  {
    "Sl No": 313,
    "Location": "792, 14th cros, 5th main\nAgrahara layout\nBangalore 560064",
    "Longitude": 77.62710426,
    "Latitude": 13.09726667
  },
  {
    "Sl No": 314,
    "Location": "Harohalli Nagenahalli Yelahanka Bengalore 560064",
    "Longitude": 77.57700663,
    "Latitude": 13.1318395
  },
  {
    "Sl No": 315,
    "Location": "No 14&15, sy no 35/2 , konappana Agrahara village, Near Hosur road, Electronic city phase 2 , Bengaluru - 560100",
    "Longitude": 77.6718321,
    "Latitude": 12.848298
  },
  {
    "Sl No": 316,
    "Location": "171 3 main8th cross opposite gururaj Kalyana mantapa",
    "Longitude": 77.48414922,
    "Latitude": 12.92412109
  },
  {
    "Sl No": 317,
    "Location": "No 42 SVG Nagar Moodalapalya",
    "Longitude": 77.52547603,
    "Latitude": 12.97309022
  },
  {
    "Sl No": 318,
    "Location": "No7 2 T dharashalli tumukura  road banglore 560057",
    "Longitude": 77.51635316,
    "Latitude": 13.04191469
  },
  {
    "Sl No": 319,
    "Location": "Ramesh road T dharahalli banglore 560057",
    "Longitude": 77.51750215,
    "Latitude": 13.04769626
  },
  {
    "Sl No": 320,
    "Location": "NO 3 NEAR PAPAREDDYPALYA BUS STOP NEAR AIRTEL SHOW ROOM OPPSITE BANGALORE",
    "Longitude": 77.50762358,
    "Latitude": 12.97168696
  },
  {
    "Sl No": 321,
    "Location": "Autobrite  ashwath nagar sanjay nagar main road, opposite hillton motors",
    "Longitude": 77.58041806,
    "Latitude": 13.0263285
  },
  {
    "Sl No": 322,
    "Location": "3319th cross 3ed main road hoysala nagar rm nagar bangalore",
    "Longitude": 77.66733068,
    "Latitude": 13.02140782
  },
  {
    "Sl No": 323,
    "Location": "155 The Energy Company 2md cross road Arekere Micro layout 1st stage",
    "Longitude": 77.59461902,
    "Latitude": 12.89079979
  },
  {
    "Sl No": 324,
    "Location": "2 6th cross Muneshwara Layout Attur Layout Main road Near Akshya Nursing Home Yelahanka New Town",
    "Longitude": 77.56587982,
    "Latitude": 13.10569065
  },
  {
    "Sl No": 325,
    "Location": "unit number 1082 parking lot no lba020",
    "Longitude": 77.52201028,
    "Latitude": 12.93090828
  },
  {
    "Sl No": 326,
    "Location": "no 111, 7th cross, 1st mainmaruthi nagar, nagarbhavi, bengaluru -560072",
    "Longitude": 77.52157609,
    "Latitude": 12.96145877
  },
  {
    "Sl No": 327,
    "Location": "7 1st main road Kamakya layout BSK 3rd stage",
    "Longitude": 77.55238126,
    "Latitude": 12.92186857
  },
  {
    "Sl No": 328,
    "Location": "78 2nd main road 2nd stage karnataka layout near kaverinagar bus stop",
    "Longitude": 77.53151569,
    "Latitude": 12.99907212
  },
  {
    "Sl No": 329,
    "Location": "No 25, Kodigehalli Main Road, Sahakarnagar",
    "Longitude": 77.58189227,
    "Latitude": 13.05882036
  },
  {
    "Sl No": 330,
    "Location": "SINGAPORE BUS STOP ABBIGERE ROAD MADAKARI CIRCLE VIDYARANYAPURA POST",
    "Longitude": 77.53569524,
    "Latitude": 13.07854556
  },
  {
    "Sl No": 331,
    "Location": "NO 16 19TH CROSS KANAKA NAGAR RT NAGAR POST BANGALORE",
    "Longitude": 77.60514769,
    "Latitude": 13.03786121
  },
  {
    "Sl No": 332,
    "Location": "2nd cross Rahamath Nagar RT Nagar",
    "Longitude": 77.59309586,
    "Latitude": 13.01805926
  },
  {
    "Sl No": 333,
    "Location": "977 nagarabhavi",
    "Longitude": 77.50644441,
    "Latitude": 12.9701285
  },
  {
    "Sl No": 334,
    "Location": "no 636 7th main Vinayaka layout Nagarabavi2nd stage",
    "Longitude": 77.51088213,
    "Latitude": 12.96156398
  },
  {
    "Sl No": 335,
    "Location": "no 341 2cross 2an block bda layout jp nagar 8 th phase",
    "Longitude": 77.58428446,
    "Latitude": 12.86829941
  },
  {
    "Sl No": 336,
    "Location": "No 894 12th Cross 35th Main Road Near KEB Office 1st Phase J.P Nagar",
    "Longitude": 77.57847312,
    "Latitude": 12.90818242
  },
  {
    "Sl No": 337,
    "Location": "Arekere Layout",
    "Longitude": 77.60190658,
    "Latitude": 12.88973433
  },
  {
    "Sl No": 338,
    "Location": "MUDINAPALYA",
    "Longitude": 77.49576821,
    "Latitude": 12.97009256
  },
  {
    "Sl No": 339,
    "Location": "#1 29 K H ROAD SHANTHINAGAR  BANGALORE 560027",
    "Longitude": 77.59290073,
    "Latitude": 12.95790551
  },
  {
    "Sl No": 340,
    "Location": "NO 970 1 15TH CROSS A SECTOR YELAHANKA NEWTOWN BANGALORE",
    "Longitude": 77.58813243,
    "Latitude": 13.09300607
  },
  {
    "Sl No": 341,
    "Location": "NO 588 HMT LAYOUT VIDYARANYAPURA MAIN ROAD BANGALORE",
    "Longitude": 77.5596876,
    "Latitude": 13.08089562
  },
  {
    "Sl No": 342,
    "Location": "NO 40 1ST A MAIN B SECTOR OPP TO CORPORATION BANK YELAHANKA NEW TOWN BANGALORE",
    "Longitude": 77.58267816,
    "Latitude": 13.09424275
  },
  {
    "Sl No": 343,
    "Location": "NO 40 1ST A MAIN SECTOR OPP TO CORPORATION BANK YELAHANKA NEWTOWN BANGALORE",
    "Longitude": 77.58267916,
    "Latitude": 13.094279
  },
  {
    "Sl No": 344,
    "Location": "NO 588 HMT LOYOUT VIDYARANYAPURA MAIN ROAD BANGALORE",
    "Longitude": 77.55968861,
    "Latitude": 13.08090705
  },
  {
    "Sl No": 345,
    "Location": "no 75 4 th main road patel chennigappa indl area magadi main road sunkadakatte",
    "Longitude": 77.50657048,
    "Latitude": 12.98727625
  },
  {
    "Sl No": 346,
    "Location": "NO 368 Sri lakshmi Venkateswara nilaya bsk 6th stage 10th block Jattiganahalli village kodipalya post",
    "Longitude": 77.49712105,
    "Latitude": 12.89199434
  },
  {
    "Sl No": 347,
    "Location": "256 27th cross raghavendra layout Hulimavu gate",
    "Longitude": 77.60567441,
    "Latitude": 12.87948808
  },
  {
    "Sl No": 348,
    "Location": "kengeri near don road bescom college Mysore road bangalore",
    "Longitude": 77.44735971,
    "Latitude": 12.88055587
  },
  {
    "Sl No": 349,
    "Location": "37 4 53 2 nd main Thimmenahalli Nagarabhavi main road",
    "Longitude": 77.53238607,
    "Latitude": 12.97602674
  },
  {
    "Sl No": 350,
    "Location": "no1479 pipeline Road Vijayanagar",
    "Longitude": 77.54638116,
    "Latitude": 12.97075809
  },
  {
    "Sl No": 351,
    "Location": "NO 1479 PIPELINE ROAD VIJAYANAGAR",
    "Longitude": 77.54645023,
    "Latitude": 12.97093158
  },
  {
    "Sl No": 352,
    "Location": "no 1479 pipeline  Road  Vijayanagar",
    "Longitude": 77.54647437,
    "Latitude": 12.97062021
  },
  {
    "Sl No": 353,
    "Location": "no10 mallikarjunppa line avnue road crosss",
    "Longitude": 77.58056525,
    "Latitude": 12.97025886
  },
  {
    "Sl No": 354,
    "Location": "45 14 th cross puttenahalli palya opp samsung show room kothnur dinne main road Jp nagar",
    "Longitude": 77.58166998,
    "Latitude": 12.89523249
  },
  {
    "Sl No": 355,
    "Location": "no1479 pipeline Road Vijayanagar",
    "Longitude": 77.54643816,
    "Latitude": 12.97027944
  },
  {
    "Sl No": 356,
    "Location": "NO 368 Sri lakshmi Venkateswara nilaya bsk 6th stage 10th block Jattiganahalli village kodipalya post",
    "Longitude": 77.49700605,
    "Latitude": 12.89192407
  },
  {
    "Sl No": 357,
    "Location": "no 37 11 main 4th block jayanagar",
    "Longitude": 77.58643794,
    "Latitude": 12.92254992
  },
  {
    "Sl No": 358,
    "Location": "devanahalli main road virgonagar post mandor banglore 560049",
    "Longitude": 77.73892991,
    "Latitude": 13.08341873
  },
  {
    "Sl No": 359,
    "Location": "199 7 GARVEBHAVIPALYA HONGSANDRA CROSS HOSUR ROAD BANGALORE",
    "Longitude": 77.63493094,
    "Latitude": 12.8954446
  },
  {
    "Sl No": 360,
    "Location": "hagadur main road next to indian oil petrol  station narayanappa garden whitefield",
    "Longitude": 77.75272216,
    "Latitude": 12.96442876
  },
  {
    "Sl No": 361,
    "Location": "asharya layout main road banglore 560036",
    "Longitude": 77.6954684,
    "Latitude": 13.02397238
  },
  {
    "Sl No": 362,
    "Location": "199 7 GARVEBHAVIPALYA HONGSANDRA CROSS HOSUR ROAD BANGALORE",
    "Longitude": 77.63479415,
    "Latitude": 12.89550964
  },
  {
    "Sl No": 363,
    "Location": "No 923D Hesaraghatta Main Road Chikkabanvara Bangalore 560090",
    "Longitude": 77.49779228,
    "Latitude": 13.08555451
  },
  {
    "Sl No": 364,
    "Location": "#1&2 Ganapathi nagar near aladamara Acharya College road",
    "Longitude": 77.49709457,
    "Latitude": 13.07955469
  },
  {
    "Sl No": 365,
    "Location": "opp SHELL PETROL PUMP SIDDAPURA WHITEFIELD MAIN ROAD",
    "Longitude": 77.73229278,
    "Latitude": 12.95663189
  },
  {
    "Sl No": 366,
    "Location": "no147 1 2nd block s v road thyagarajanagar banglore",
    "Longitude": 77.56912462,
    "Latitude": 12.93334436
  },
  {
    "Sl No": 367,
    "Location": "3rd cross near genius school thulasi theater road marathalli",
    "Longitude": 77.69816435,
    "Latitude": 12.95508575
  },
  {
    "Sl No": 368,
    "Location": "256 2D 27th cross 3rd C main raghavendra layout hulimavu gate",
    "Longitude": 77.60564424,
    "Latitude": 12.87966392
  },
  {
    "Sl No": 369,
    "Location": "199 7 GARVEBHAVIPALYA HONGSANDRA CROSS HOSUR ROAD BANGALORE",
    "Longitude": 77.63486891,
    "Latitude": 12.8953008
  },
  {
    "Sl No": 370,
    "Location": "45 14th cross puttenahalli palya opp samsung show room kothnur dinne main road Jp nagar",
    "Longitude": 77.58174508,
    "Latitude": 12.8951838
  },
  {
    "Sl No": 371,
    "Location": "NO 238 5TH MAIN 1ST PHASE 1ST STAGE MANJUNATH NAGAR RAJAJINAGAR NEAR MODI HOSPITAL BANGALORE",
    "Longitude": 77.54629567,
    "Latitude": 12.99664615
  },
  {
    "Sl No": 372,
    "Location": "24 26 4th main santhrupthi nagar Jp nagar 7th phase",
    "Longitude": 77.58260071,
    "Latitude": 12.88684745
  },
  {
    "Sl No": 373,
    "Location": "No 80 st johns cross road chikka audgodi",
    "Longitude": 77.61120848,
    "Latitude": 12.93006455
  },
  {
    "Sl No": 374,
    "Location": "No 80 st johns cross road chikka audgodi",
    "Longitude": 77.61105358,
    "Latitude": 12.93024983
  },
  {
    "Sl No": 375,
    "Location": "2690 10th cross byrasandra jayanagar 1st block east",
    "Longitude": 77.59154621,
    "Latitude": 12.93185134
  },
  {
    "Sl No": 376,
    "Location": "opp HERO SHOWROOM GUNJUR  MAIN  VARTHUR",
    "Longitude": 77.74314533,
    "Latitude": 12.9337342
  },
  {
    "Sl No": 377,
    "Location": "1B Narayanapura opp metro pillar 104 near Whitefield ITPL main road",
    "Longitude": 77.68446497,
    "Latitude": 12.99987968
  },
  {
    "Sl No": 378,
    "Location": "muneshwara circle A   narayana pura bangalore560016 opp shri govinda nilaya",
    "Longitude": 77.67548996,
    "Latitude": 12.99357135
  },
  {
    "Sl No": 379,
    "Location": "131 2 opp metro pillar no 98 ground floor B narayanapura Whitefield road",
    "Longitude": 77.68269974,
    "Latitude": 13.0001688
  },
  {
    "Sl No": 380,
    "Location": "60/2 HMT LAYOUT ,60 FEET ROAD\t560073",
    "Longitude": 77.49998699,
    "Latitude": 13.03988502
  },
  {
    "Sl No": 381,
    "Location": "No 80 st johns cross road chikka audgodi",
    "Longitude": 77.61114243,
    "Latitude": 12.93002697
  },
  {
    "Sl No": 382,
    "Location": "NO 709 SHOP NO 2 K VIRANNA LAYOUT THINDLU MAIN ROAD VIDYARANYAPURA",
    "Longitude": 77.56005372,
    "Latitude": 13.06633675
  },
  {
    "Sl No": 383,
    "Location": "19 9th D main pipeline vijaynagar",
    "Longitude": 77.54524961,
    "Latitude": 12.96801165
  },
  {
    "Sl No": 384,
    "Location": "50ft road byregowda road  Balaji  Layout malathahalli",
    "Longitude": 77.48929638,
    "Latitude": 12.96127318
  },
  {
    "Sl No": 385,
    "Location": "21 Sri Ranga nagar BSK 3rd stage",
    "Longitude": 77.53464415,
    "Latitude": 12.94102205
  },
  {
    "Sl No": 386,
    "Location": "27 4 th main Wilson garden",
    "Longitude": 77.59615525,
    "Latitude": 12.94970065
  },
  {
    "Sl No": 387,
    "Location": "asharya layout main road banglore 560036",
    "Longitude": 77.69547075,
    "Latitude": 13.02395604
  },
  {
    "Sl No": 388,
    "Location": "618 60feet ROAD MEI LAYOUT MAIN ROAD NAGASANDRA POST",
    "Longitude": 77.49964635,
    "Latitude": 13.06107948
  },
  {
    "Sl No": 389,
    "Location": "1 and 2 Ganapathi nagar near aladamara",
    "Longitude": 77.49694302,
    "Latitude": 13.07973366
  },
  {
    "Sl No": 390,
    "Location": "626 MEDAHALLI EXTENTION VIRGONAGAR POST OLD MADRAS ROAD",
    "Longitude": 77.71905608,
    "Latitude": 13.02502582
  },
  {
    "Sl No": 391,
    "Location": "Cambridge college road 1st cross  j b layout K R puram  Bangalore 560036",
    "Longitude": 77.70341545,
    "Latitude": 13.01589089
  },
  {
    "Sl No": 392,
    "Location": "College Road opp MTB park hosjote",
    "Longitude": 77.78553865,
    "Latitude": 13.06246003
  },
  {
    "Sl No": 393,
    "Location": "Hoskote court circle IB road",
    "Longitude": 77.78400678,
    "Latitude": 13.06967192
  },
  {
    "Sl No": 394,
    "Location": "73 Katamnallur Whitefield road near Vibgyor school baglore 560049",
    "Longitude": 77.76066955,
    "Latitude": 13.04958412
  },
  {
    "Sl No": 395,
    "Location": "NO 06 singapura layout near cavery circal singapura main road vidyaranyapura post Bangalore 560097",
    "Longitude": 77.54015509,
    "Latitude": 13.07507825
  },
  {
    "Sl No": 396,
    "Location": "no 199 seshadripuram Bangalore 560020",
    "Longitude": 77.57398009,
    "Latitude": 12.99352757
  },
  {
    "Sl No": 397,
    "Location": "NO 28 1 OPP LION CLUB BANGALORE",
    "Longitude": 77.57285591,
    "Latitude": 12.99123745
  },
  {
    "Sl No": 398,
    "Location": "MUDINAPALYA",
    "Longitude": 77.49568305,
    "Latitude": 12.97018927
  },
  {
    "Sl No": 399,
    "Location": "No 80 st johns cross roadchikka audgodi",
    "Longitude": 77.61130571,
    "Latitude": 12.92955902
  },
  {
    "Sl No": 400,
    "Location": "96107 1ST MAIN ROAD AZEEZ SAIT INDUSTRIAL AREA NEXT TO CANARA BANK NAYANDAHALLI",
    "Longitude": 77.52617374,
    "Latitude": 12.9474464
  },
  {
    "Sl No": 401,
    "Location": "734 81 9th main 6th cross 2nd block BSK 1st stage",
    "Longitude": 77.56002724,
    "Latitude": 12.93887424
  },
  {
    "Sl No": 402,
    "Location": "639 11th main road arakere  BG road Bangalore",
    "Longitude": 77.60322723,
    "Latitude": 12.88968237
  },
  {
    "Sl No": 403,
    "Location": "2nd cross kutyyiyappa garden DC Halli main road bilekahalli",
    "Longitude": 77.60930277,
    "Latitude": 12.89582175
  },
  {
    "Sl No": 404,
    "Location": "No 80 st johns cross road chikka audgodi",
    "Longitude": 77.61129364,
    "Latitude": 12.92969986
  },
  {
    "Sl No": 405,
    "Location": "31 61 8th cross beside 3rd gate lnt south city lakshmi layout arekare",
    "Longitude": 77.58826855,
    "Latitude": 12.88967616
  },
  {
    "Sl No": 406,
    "Location": "No 2645 1 12th Main road E Block Rajajinagar",
    "Longitude": 77.55793277,
    "Latitude": 13.0042229
  },
  {
    "Sl No": 407,
    "Location": "232 9th cross Telecom Layout vijaynagar",
    "Longitude": 77.54795495,
    "Latitude": 12.96732455
  },
  {
    "Sl No": 408,
    "Location": "NO 28 1 OPP LION CLUB BANGALORE",
    "Longitude": 77.57283646,
    "Latitude": 12.99129169
  },
  {
    "Sl No": 409,
    "Location": "DNR Atmosphere Ramagondanahalli Whitefield",
    "Longitude": 77.73831568,
    "Latitude": 12.95844398
  },
  {
    "Sl No": 410,
    "Location": "#92/2 9th cross Ramakrishna layout malgala pattwgarapalya nagarabhavi",
    "Longitude": 77.51770399,
    "Latitude": 12.9775636
  },
  {
    "Sl No": 411,
    "Location": "359, 1st Main Rd",
    "Longitude": 77.60550811,
    "Latitude": 12.87939657
  },
  {
    "Sl No": 412,
    "Location": "GONGONAHALLI",
    "Longitude": 0.00080466,
    "Latitude": 0.00020284
  },
  {
    "Sl No": 413,
    "Location": "no64 desouza nagar near prestige building rr nagar",
    "Longitude": 77.53017626,
    "Latitude": 12.93425768
  },
  {
    "Sl No": 414,
    "Location": "JAKKU LAYOUT OPP NEW KRISHNA SAGAR HOTEL BANGALORE",
    "Longitude": 77.6041717,
    "Latitude": 13.07237085
  },
  {
    "Sl No": 415,
    "Location": "442nd main 8th cross arakere lakshmi layout",
    "Longitude": 77.58866015,
    "Latitude": 12.89097268
  },
  {
    "Sl No": 416,
    "Location": "442nd main 8th cross arakere lakshmi layout",
    "Longitude": 77.58865445,
    "Latitude": 12.89096516
  },
  {
    "Sl No": 417,
    "Location": "no64 desouza nagar near prestige building rr nagar",
    "Longitude": 77.53026679,
    "Latitude": 12.93397078
  },
  {
    "Sl No": 418,
    "Location": "NO 262 RAMPURA BIDHARAHALLI MAIN ROAD VIRGONAGARA POST BANGALORE",
    "Longitude": 77.69266683,
    "Latitude": 13.05180347
  },
  {
    "Sl No": 419,
    "Location": "NO 2617 5 BAJJAPPA COMPLEX NEA HONDA SHOWROOM KOGILU MAIN ROAD YELAHANKA BANGALORE",
    "Longitude": 77.6034864,
    "Latitude": 13.10429663
  },
  {
    "Sl No": 420,
    "Location": "320 opp Gidada hanumantharaya temple herohalli cross Magadi main road",
    "Longitude": 77.49689877,
    "Latitude": 12.98845563
  },
  {
    "Sl No": 421,
    "Location": "No 72 1st main 2nd  B cross chowdeshwari nagar kalikamba temple road laggere",
    "Longitude": 77.52175848,
    "Latitude": 13.00294526
  },
  {
    "Sl No": 422,
    "Location": "No. 2, 2nd block 3rdstage, opp. Bharath petrol bunk BASAVESHWARA NAGAR police station Bangalore 79",
    "Longitude": 77.54300761,
    "Latitude": 12.98552089
  },
  {
    "Sl No": 423,
    "Location": "27 2nd temples road 16th cross malleshwaram",
    "Longitude": 77.57225442,
    "Latitude": 13.00644168
  },
  {
    "Sl No": 424,
    "Location": "No, 83 SSV Garden 4th Cross  Near Janapriya Greenwood Appt, Chikkabanavara, Bangalore -560090",
    "Longitude": 77.51490678,
    "Latitude": 13.08362088
  },
  {
    "Sl No": 425,
    "Location": "4th Cross BTS main road next to Syndicate bank wilson garden",
    "Longitude": 77.59596817,
    "Latitude": 12.95217544
  },
  {
    "Sl No": 426,
    "Location": "no 1 18th main road chikkalasandra bangalore 560061",
    "Longitude": 77.55325701,
    "Latitude": 12.91403344
  },
  {
    "Sl No": 427,
    "Location": "No 62 7th Cross CT bed road trip nagar bsk 2nd Stage",
    "Longitude": 77.56636664,
    "Latitude": 12.92931558
  },
  {
    "Sl No": 428,
    "Location": "1028 14th cross maruthi circle Hanumanthanagar",
    "Longitude": 77.55804777,
    "Latitude": 12.94301626
  },
  {
    "Sl No": 429,
    "Location": "8th a cross balajinagar thigalaraplaya Main road bangalore",
    "Longitude": 77.49308735,
    "Latitude": 13.01715735
  },
  {
    "Sl No": 430,
    "Location": "No 16  Chunchaghatta main road konankuntte post BENGALURU",
    "Longitude": 77.57424227,
    "Latitude": 12.88623333
  },
  {
    "Sl No": 431,
    "Location": "No 62 7th Cross CT bed road Tr nagar bsk 2nd Stage",
    "Longitude": 77.56636664,
    "Latitude": 12.92931558
  },
  {
    "Sl No": 432,
    "Location": "kamakshipalya",
    "Longitude": 77.53046929,
    "Latitude": 12.9805481
  },
  {
    "Sl No": 433,
    "Location": "85 someshwara loyout kodichikkanahalli road near nirajan apartment",
    "Longitude": 77.6095787,
    "Latitude": 12.89935726
  },
  {
    "Sl No": 434,
    "Location": "2 kathriguppe main road bsk 3rd stage opposite to Bank of baroda",
    "Longitude": 77.5569142,
    "Latitude": 12.93332574
  },
  {
    "Sl No": 435,
    "Location": "22nd Cross  14thmain 1st stage kumarswamy layout",
    "Longitude": 77.56384771,
    "Latitude": 12.90710887
  },
  {
    "Sl No": 436,
    "Location": "no636 Vinayaka layout Nagarabavi2nd stage Nagarabavi",
    "Longitude": 77.51090794,
    "Latitude": 12.96145354
  },
  {
    "Sl No": 437,
    "Location": "NO 754 8TH MAIN ROAD 3RD STAGE 4TH BLOCK BASAVESHWARNAGAR BANGLORE",
    "Longitude": 77.53540221,
    "Latitude": 12.99202838
  },
  {
    "Sl No": 438,
    "Location": "no 636 7th main Vinayaka layout Nagarabavi2nd stage",
    "Longitude": 77.51080334,
    "Latitude": 12.96156594
  },
  {
    "Sl No": 439,
    "Location": "1028 14th cross maruthi circle Hanumanthanagar",
    "Longitude": 77.55809102,
    "Latitude": 12.94302606
  },
  {
    "Sl No": 440,
    "Location": "7 2nd Main 1st Cross Industrial Workers Layout Shankarnagar",
    "Longitude": 77.54310954,
    "Latitude": 13.01259844
  },
  {
    "Sl No": 441,
    "Location": "#140, Doddanagamangala, electronic city phase 2",
    "Longitude": 77.67642907,
    "Latitude": 12.86182497
  },
  {
    "Sl No": 442,
    "Location": "Jyoti Nivas Kumara Park West",
    "Longitude": 77.57978942,
    "Latitude": 12.99451516
  },
  {
    "Sl No": 443,
    "Location": "CSC school hesaragatta main road Bangalore",
    "Longitude": 77.49797936,
    "Latitude": 13.08492227
  },
  {
    "Sl No": 444,
    "Location": "No 92/3D Hesaraghatta Main Road Chikkabanvara",
    "Longitude": 77.49780401,
    "Latitude": 13.08554928
  },
  {
    "Sl No": 445,
    "Location": "Somashekar building near gangadharaiah choultry opp DS max apratment chikkabanavara",
    "Longitude": 77.51050595,
    "Latitude": 13.08010693
  },
  {
    "Sl No": 446,
    "Location": "abbigere main road near ayyappa school chikkabanabara Bangalore",
    "Longitude": 77.51837722,
    "Latitude": 13.07399333
  },
  {
    "Sl No": 447,
    "Location": "Opp SBI bank near Krishna collage acharya college main road Bangalore",
    "Longitude": 77.49898452,
    "Latitude": 13.07594206
  },
  {
    "Sl No": 448,
    "Location": "chikkabanavara railway under pass  hesarugatta main road",
    "Longitude": 77.50145819,
    "Latitude": 13.07925881
  },
  {
    "Sl No": 449,
    "Location": "95 96 kothanur main road chunchagatta shrinidi layout",
    "Longitude": 77.57563568,
    "Latitude": 12.88289799
  },
  {
    "Sl No": 450,
    "Location": "95 Kothanur main road srinidhi layout  near maruthi school",
    "Longitude": 77.57545765,
    "Latitude": 12.88273784
  },
  {
    "Sl No": 451,
    "Location": "chandhupasha007@gmail.com",
    "Longitude": 77.44703549,
    "Latitude": 12.8843341
  },
  {
    "Sl No": 452,
    "Location": "Dr vishuvardjan road bendre nagar kadirenahalli Banglore 560070",
    "Longitude": 77.56263501,
    "Latitude": 12.91512493
  },
  {
    "Sl No": 453,
    "Location": "Honda motors",
    "Longitude": 77.49716598,
    "Latitude": 13.06673258
  },
  {
    "Sl No": 454,
    "Location": "NO 114 MESTRI PALYA NEAR ST ANS CHURCH DR SRK NAGAR THANISANDRA BANGALORE",
    "Longitude": 77.62062873,
    "Latitude": 13.06142046
  },
  {
    "Sl No": 455,
    "Location": "hesaragata main road chikkabaravara Maruthi complex 22bagalore 560090",
    "Longitude": 77.50238087,
    "Latitude": 13.07790024
  },
  {
    "Sl No": 456,
    "Location": "gadappa building shidedhahalli main road nagashadhara Bangalore 560073",
    "Longitude": 77.49587416,
    "Latitude": 13.06251196
  },
  {
    "Sl No": 457,
    "Location": "NO 49 D N VEERSNNA LAYOUT KEMPEGOWDA MAIN ROAD HEBBAL DASARAHALLI BANGALORE",
    "Longitude": 77.60923907,
    "Latitude": 13.06150929
  },
  {
    "Sl No": 458,
    "Location": "NO 49 D N VEERSNNA LAYOUT KEMPEGOWDA MAIN ROAD HEBBAL DASARAHALLI BANGALORE",
    "Longitude": 77.60928098,
    "Latitude": 13.0614861
  },
  {
    "Sl No": 459,
    "Location": "NO0111 1 AGHARA MAIN ROAD KOGILU YELAHANKA BANGALORE",
    "Longitude": 77.6180756,
    "Latitude": 13.09810722
  },
  {
    "Sl No": 460,
    "Location": "NO 3 KAVERI ENCALB VIDYARANYAPURA POST KODIGEHALLI MAIN ROAD",
    "Longitude": 77.56837494,
    "Latitude": 13.07047631
  },
  {
    "Sl No": 461,
    "Location": "NO 153 SAHAKAR NAGAR BANGALORE",
    "Longitude": 77.58156437,
    "Latitude": 13.05553306
  },
  {
    "Sl No": 462,
    "Location": "No 297 NEXT FEDERAL BANK  BANGALORE  INTERNATIONAL AIRPORT ROAD CHIKKAJALA",
    "Longitude": 77.63193558,
    "Latitude": 13.17033087
  },
  {
    "Sl No": 463,
    "Location": "NO 297 NEXT TO FEDERAL BANK BANGALORE INTERNATIONAL AIRPORT ROAD CHIKKAJALA BANGALORE",
    "Longitude": 77.63204086,
    "Latitude": 13.17025905
  },
  {
    "Sl No": 464,
    "Location": "Bangalore near santhe circle yahelanka main road 562149",
    "Longitude": 77.66431655,
    "Latitude": 13.13228388
  },
  {
    "Sl No": 465,
    "Location": "NO 297 NEXT TO FEDERAL BANK BANGALORE INTERNATIONAL AIRPORT ROAD CHIKKAJALA BANGALORE",
    "Longitude": 77.63406358,
    "Latitude": 13.17215674
  },
  {
    "Sl No": 466,
    "Location": "#51/1, 2nd cross, singayyanapalya, mahadevapura post,\nBangalore - 560048",
    "Longitude": 77.6948471,
    "Latitude": 12.99738597
  },
  {
    "Sl No": 467,
    "Location": "#865.kantha squre, 9th cross iti Layout opp BBMP papareddy palya nagarabhavi",
    "Longitude": 77.50550396,
    "Latitude": 12.96982105
  },
  {
    "Sl No": 468,
    "Location": "29/1A AMRUTHANAGAR MAIN ROAD OPP SBI BANK KONANKUNTE",
    "Longitude": 77.56725043,
    "Latitude": 12.88058822
  },
  {
    "Sl No": 469,
    "Location": "94 36 mylasandra village bangalore",
    "Longitude": 77.62035045,
    "Latitude": 12.85499375
  },
  {
    "Sl No": 470,
    "Location": "37 mylasandra village begur road",
    "Longitude": 77.6222803,
    "Latitude": 12.84755402
  },
  {
    "Sl No": 471,
    "Location": "No 6 2 Lakshmi road 8th cross thayappa garden shanthinagar bangalore 560027",
    "Longitude": 77.59935177,
    "Latitude": 12.95819566
  },
  {
    "Sl No": 472,
    "Location": "3 1 BTS main road chinnayan palya",
    "Longitude": 77.6012548,
    "Latitude": 12.94843548
  },
  {
    "Sl No": 473,
    "Location": "reddy layout Rupena agraha6th cross Chikkathayappara bhommanhalli bangalore",
    "Longitude": 77.62228567,
    "Latitude": 12.91266906
  },
  {
    "Sl No": 474,
    "Location": "37 mylasandra village begur main road",
    "Longitude": 77.62220889,
    "Latitude": 12.84767954
  },
  {
    "Sl No": 475,
    "Location": "No 85 mount JOY road HANUMANTHA NAGARA bangalore 560019",
    "Longitude": 77.56541881,
    "Latitude": 12.94301462
  },
  {
    "Sl No": 476,
    "Location": "no18 1st stage 2nd main 8th cross indhiranagar BANGALORE=38",
    "Longitude": 77.63945415,
    "Latitude": 12.98174647
  },
  {
    "Sl No": 477,
    "Location": "No 85 mount JOY road HANUMANTHA NAGARA Bangalore 560019",
    "Longitude": 77.56542854,
    "Latitude": 12.94301593
  },
  {
    "Sl No": 478,
    "Location": "no18 1st stage 2nd main 8th cross indhiranagar BANGALORE=38",
    "Longitude": 77.63945214,
    "Latitude": 12.98175954
  },
  {
    "Sl No": 479,
    "Location": "no17th main road muneshwara block",
    "Longitude": 77.54858829,
    "Latitude": 12.94342372
  },
  {
    "Sl No": 480,
    "Location": "#65 2nd main road Nagasandra Post 560073 Bengaluru",
    "Longitude": 77.50552743,
    "Latitude": 13.04820154
  },
  {
    "Sl No": 481,
    "Location": "annapoorneshwarinagar  197opp andhra bank road  banglore",
    "Longitude": 77.50487063,
    "Latitude": 12.9781298
  },
  {
    "Sl No": 482,
    "Location": "No 289 near st francis school 16th cross  opp guardian bank begur main road Bangalore 560068",
    "Longitude": 77.62547917,
    "Latitude": 12.88844663
  },
  {
    "Sl No": 483,
    "Location": "1 A Maylsandra begur road near GIBS College",
    "Longitude": 77.62305781,
    "Latitude": 12.86381034
  },
  {
    "Sl No": 484,
    "Location": "972 G  1st main road  ST  BED layout near  smart BANGALORE",
    "Longitude": 77.63011939,
    "Latitude": 12.93553241
  },
  {
    "Sl No": 485,
    "Location": "187 24th cross 16th main  banahankari 2nd stage",
    "Longitude": 77.56652388,
    "Latitude": 12.9240724
  },
  {
    "Sl No": 486,
    "Location": "No 955 Thekkan's Building 5th A Main 1st block  kormangala",
    "Longitude": 77.63436835,
    "Latitude": 12.92935544
  },
  {
    "Sl No": 487,
    "Location": "No 289 near st francis school 16th cross opp guardian bank begur main road Bangalore 560068",
    "Longitude": 77.62534741,
    "Latitude": 12.88851069
  },
  {
    "Sl No": 488,
    "Location": "59 69 16th cross lakkasandra next to govt Kannada School Bangalore",
    "Longitude": 77.60122027,
    "Latitude": 12.94248724
  },
  {
    "Sl No": 489,
    "Location": "27 4 th main Wilson garden",
    "Longitude": 77.59618677,
    "Latitude": 12.94964903
  },
  {
    "Sl No": 490,
    "Location": "187 24th cross 16th main  banahankari 2nd stage",
    "Longitude": 77.56652958,
    "Latitude": 12.92406129
  },
  {
    "Sl No": 491,
    "Location": "22nd main 38 th cross 4Th T block jayanagar Bangalore560041",
    "Longitude": 77.59175109,
    "Latitude": 12.92154216
  },
  {
    "Sl No": 492,
    "Location": "kodigahalli main road",
    "Longitude": 77.57847581,
    "Latitude": 13.05947913
  },
  {
    "Sl No": 493,
    "Location": "no1471/2 Bandi Reddy circle Srirampuran banglore",
    "Longitude": 77.5646289,
    "Latitude": 12.99146549
  },
  {
    "Sl No": 494,
    "Location": "# 350 7the cross 1 st Main road. prakashnagar Bangalore 560021",
    "Longitude": 77.56063912,
    "Latitude": 12.99007769
  },
  {
    "Sl No": 495,
    "Location": "tata nagar  circle",
    "Longitude": 77.57106788,
    "Latitude": 13.05396729
  },
  {
    "Sl No": 496,
    "Location": "2nd main road 8th cross prakash nagar",
    "Longitude": 77.56073266,
    "Latitude": 12.99122994
  },
  {
    "Sl No": 497,
    "Location": "#6 thindlu circle nanjappa circle mine road  vidyaranyapura",
    "Longitude": 77.5664984,
    "Latitude": 13.07295707
  },
  {
    "Sl No": 498,
    "Location": "BTM 4TH STAGE VIJAY BANK LAYOUT OPP PETROL BUNK DEVARACHIKKANAHALLI main road Bangalore",
    "Longitude": 77.61201985,
    "Latitude": 12.89351341
  },
  {
    "Sl No": 499,
    "Location": "dhodabomasandhar pete shidhpa cricle Bangalore 560097",
    "Longitude": 77.55916155,
    "Latitude": 13.05987007
  },
  {
    "Sl No": 500,
    "Location": "oppsite nitin creation hegganahalli cross nagarahole circle second cross bangalore 560091",
    "Longitude": 77.49797534,
    "Latitude": 12.99795486
  },
  {
    "Sl No": 501,
    "Location": "26 SHRI SIBBAIAH RAJU COMPOUND BILEKAHALLI RANKA COLONY BANNERGHATTA",
    "Longitude": 77.6059651,
    "Latitude": 12.90189333
  },
  {
    "Sl No": 502,
    "Location": "no3 sapthagiri Chamundi nagar bda layout Giri Nagar Bangalore",
    "Longitude": 77.53979433,
    "Latitude": 12.93790244
  },
  {
    "Sl No": 503,
    "Location": "176 4th cross Prakash Nagar Bangalore",
    "Longitude": 77.55626376,
    "Latitude": 12.99579676
  },
  {
    "Sl No": 504,
    "Location": "no 131 1 14th main road Prakash Nagar Bangalore 560021",
    "Longitude": 77.55580678,
    "Latitude": 12.99580264
  },
  {
    "Sl No": 505,
    "Location": "No 20 24 3rd cross KEB LAYOUT BTM 1ST STAGE",
    "Longitude": 77.60263077,
    "Latitude": 12.91782326
  },
  {
    "Sl No": 506,
    "Location": "NO 158 SAMDRUDDI KUTEERA FOOD COURT MANIPAL COUNTY ROAD CHIKKA BEGUR",
    "Longitude": 77.63684503,
    "Latitude": 12.87917039
  },
  {
    "Sl No": 507,
    "Location": "NO 32 1ST MAIN 7TH CROSS DEVAGOWDA ROAD THIMMAIAH GARDEN BEHIND CUPA ANIMAL CLINIC RT NAGAR POST BANGALORE",
    "Longitude": 77.59876403,
    "Latitude": 13.01865737
  },
  {
    "Sl No": 508,
    "Location": "No 4 Ramchandrapura old villege anjaneya temple road",
    "Longitude": 77.55189813,
    "Latitude": 13.06189501
  },
  {
    "Sl No": 509,
    "Location": "#3, 3rd cross, M.D Block, Malleshwaram, Bangalore",
    "Longitude": 77.568787,
    "Latitude": 12.99557494
  },
  {
    "Sl No": 510,
    "Location": "#3, 3rd cross, M.D Block, Malleshwaram, Bangalore",
    "Longitude": 77.56877224,
    "Latitude": 12.99556318
  },
  {
    "Sl No": 511,
    "Location": "Behind bake nd bake opp sigma software teck park",
    "Longitude": 77.74349268,
    "Latitude": 12.9571599
  },
  {
    "Sl No": 512,
    "Location": "GUNI AGRAHARA LAXMIPURA CROSS NEWAR ANDRA BANK HESARAGATTA ROAD BANGLORE 89",
    "Longitude": 77.53386396,
    "Latitude": 13.09257109
  },
  {
    "Sl No": 513,
    "Location": "No 8 GBH LAYOUT NEAR TATA NAGAR SAHAKARNAGAR POST BANGALORE 92",
    "Longitude": 77.57048852,
    "Latitude": 13.05426516
  },
  {
    "Sl No": 514,
    "Location": "no 13 1 14th main Prakash Nagar Bangalore 560021",
    "Longitude": 77.55573436,
    "Latitude": 12.99554031
  },
  {
    "Sl No": 515,
    "Location": "Channasandra, Uttarahalli, Kengeri main road, RR Nagar, Bangalore 560098",
    "Longitude": 77.52328701,
    "Latitude": 12.90353686
  },
  {
    "Sl No": 516,
    "Location": "singapura village varadharia Nagar Banglore 560097",
    "Longitude": 77.54029087,
    "Latitude": 13.08295467
  },
  {
    "Sl No": 517,
    "Location": "No 42 Kalyan nagar Opp Bank of Baroda Nagarabhavi main road",
    "Longitude": 77.52422176,
    "Latitude": 12.9683655
  },
  {
    "Sl No": 518,
    "Location": "977 GROUND FLOOR ITI SOCIETY LAYOUT OUTER RING ROAD PAPAREDDY PALYA BANGALORE",
    "Longitude": 77.50628683,
    "Latitude": 12.97058068
  },
  {
    "Sl No": 519,
    "Location": "No 8 Thirumenahalli Thanisandra main road Bangalore 560064",
    "Longitude": 77.63618957,
    "Latitude": 13.09552808
  },
  {
    "Sl No": 520,
    "Location": "#14/A 11th main road chandranagar Kumaraswamy layout Bangalore",
    "Longitude": 77.56282914,
    "Latitude": 12.90114526
  },
  {
    "Sl No": 521,
    "Location": "178  b/w 11&12  cross cubbpn pet main road bangalore",
    "Longitude": 77.58408632,
    "Latitude": 12.96898627
  },
  {
    "Sl No": 522,
    "Location": "20th main 12th cross btm 1st stage road Bangalore 560068",
    "Longitude": 77.61364124,
    "Latitude": 12.92124539
  },
  {
    "Sl No": 523,
    "Location": "duo heinht  lyout navapanahalli mainroadbagur",
    "Longitude": 77.61826839,
    "Latitude": 12.88483743
  },
  {
    "Sl No": 524,
    "Location": "5 Venugopalanagara doddabidarakallu main road nagasandre",
    "Longitude": 77.4940117,
    "Latitude": 13.03902826
  },
  {
    "Sl No": 525,
    "Location": "760 2nd main chowdeshwari layout marathahalli Bangalore 560037",
    "Longitude": 77.6976668,
    "Latitude": 12.95574478
  },
  {
    "Sl No": 526,
    "Location": "NO 158 SAMDRUDDI KUTEERA FOOD COURT MANIPAL COUNTY ROAD CHIKKA BEGUR",
    "Longitude": 77.63679508,
    "Latitude": 12.87921746
  },
  {
    "Sl No": 527,
    "Location": "no 43, Dwaraka nagar, channasandra,rr Nagar, bangalore 560098",
    "Longitude": 77.52337887,
    "Latitude": 12.90365909
  },
  {
    "Sl No": 528,
    "Location": "NO 158 SAMDRUDDI KUTEERA FOOD COURT MANIPAL COUNTY ROAD CHIKKA BEGUR",
    "Longitude": 77.6367136,
    "Latitude": 12.87935538
  },
  {
    "Sl No": 529,
    "Location": "46 HANUMAN LAYOUT RAMACHANDARA PURA MAIN ROAD BANGALORE 13",
    "Longitude": 77.5523529,
    "Latitude": 13.06152153
  },
  {
    "Sl No": 530,
    "Location": "132 OLD MSR ROAD SANJAY NAGAR MAIN ROAD RMV 2ND STAGE BANGALORE 94",
    "Longitude": 77.57924593,
    "Latitude": 13.0267502
  },
  {
    "Sl No": 531,
    "Location": "no 43, Dwaraka nagar, channasandra,rr Nagar, bangalore 560098",
    "Longitude": 77.52343486,
    "Latitude": 12.9035617
  },
  {
    "Sl No": 532,
    "Location": "135 OLD MSR ROAD SANJAY NAGAR MAIN ROAD RMV 2ND STAGE BANGALORE 94",
    "Longitude": 77.57924459,
    "Latitude": 13.02678189
  },
  {
    "Sl No": 533,
    "Location": "99 3rd cross brindaban layout tc palya",
    "Longitude": 77.70816262,
    "Latitude": 13.0199934
  },
  {
    "Sl No": 534,
    "Location": "162  opposite sandeep vihar",
    "Longitude": 77.76227921,
    "Latitude": 13.02095802
  },
  {
    "Sl No": 535,
    "Location": "HOSKOTE MAIN ROAD KADGODI POST BELTTHUR BANGLORE",
    "Longitude": 77.75658722,
    "Latitude": 13.00581348
  },
  {
    "Sl No": 536,
    "Location": "162 opposite sandeep vihar",
    "Longitude": 77.76149198,
    "Latitude": 13.02076431
  },
  {
    "Sl No": 537,
    "Location": "16 28 JMJ nilaya white City layout 2 phase 2cross seegehalli behind government hospital virgonagar post",
    "Longitude": 77.71759394,
    "Latitude": 13.01704139
  },
  {
    "Sl No": 538,
    "Location": "GT complex DS Max apartment opposite Kithaganuru main road KR Puram Bangalore",
    "Longitude": 77.70824309,
    "Latitude": 13.03018161
  },
  {
    "Sl No": 539,
    "Location": "No 20 24 3rd cross KEB LAYOUT BTM 1ST STAGE",
    "Longitude": 77.60272398,
    "Latitude": 12.91781705
  },
  {
    "Sl No": 540,
    "Location": "No 02 SONNAPPA BULIDING MANDURU POST BOMMENAHALLI BANGALORE",
    "Longitude": 77.74460546,
    "Latitude": 13.0700021
  },
  {
    "Sl No": 541,
    "Location": "8th Main 8 th cross.  2nd block jayanagar banglore",
    "Longitude": 77.58296482,
    "Latitude": 12.93967121
  },
  {
    "Sl No": 542,
    "Location": "R c car care near apple city segehalli banglore",
    "Longitude": 77.75891337,
    "Latitude": 13.0090616
  },
  {
    "Sl No": 543,
    "Location": "#3, 3rd Cross, M.D Block, Malleswaram, Bangalore",
    "Longitude": 77.56878666,
    "Latitude": 12.99558147
  },
  {
    "Sl No": 544,
    "Location": "No 894 12th Cross 35th Main Road Near KEB Office 1st Phase J.P Nagar",
    "Longitude": 77.57835578,
    "Latitude": 12.90813699
  },
  {
    "Sl No": 545,
    "Location": "No 50/30 1st main road 3rd cross opp govt school channasandra Bangalore 560098",
    "Longitude": 77.52203878,
    "Latitude": 12.90250545
  },
  {
    "Sl No": 546,
    "Location": "doddabylakkre hesragatta  main road Bangalore   560089",
    "Longitude": 77.52462677,
    "Latitude": 13.11369279
  },
  {
    "Sl No": 547,
    "Location": "NO 44 NEAR MUNESHWARA TEMPALE 11 CROSS VYALIKAVAL BANGALORE 03",
    "Longitude": 77.57687252,
    "Latitude": 13.00183063
  },
  {
    "Sl No": 548,
    "Location": "No 7th main road garvebhavipalya  near om shakthi arch",
    "Longitude": 77.63183768,
    "Latitude": 12.89634433
  },
  {
    "Sl No": 549,
    "Location": "doddabylakree hesaragatta main road Bangalore 560089",
    "Longitude": 77.52466164,
    "Latitude": 13.11372512
  },
  {
    "Sl No": 550,
    "Location": "doddabylakere hesaraghatta main road Bangalore 560089",
    "Longitude": 77.52489533,
    "Latitude": 13.11430961
  },
  {
    "Sl No": 551,
    "Location": "3/298 Manipal County road chikkabegur singasandra banglore",
    "Longitude": 77.63231277,
    "Latitude": 12.87810783
  },
  {
    "Sl No": 552,
    "Location": "shantiniketan main road oop mariyam temple arakere bannargatta road banglore560076",
    "Longitude": 77.6029523,
    "Latitude": 12.88656834
  },
  {
    "Sl No": 553,
    "Location": "14\\ 7kachahalli induterial aere near magadi main banglore 560091",
    "Longitude": 77.4642831,
    "Latitude": 13.00560735
  },
  {
    "Sl No": 554,
    "Location": "sallapurdamma temple heganahali main road  sunkadakatte",
    "Longitude": 77.50322442,
    "Latitude": 12.99604994
  },
  {
    "Sl No": 555,
    "Location": "208 RAJAGOPAL ROAD 0PP TO MILLENNIUM SCHOOL NAGASHETAHALLI BANGALORE 94",
    "Longitude": 77.57302656,
    "Latitude": 13.04073915
  },
  {
    "Sl No": 556,
    "Location": "584 KRISHNEGOWDA EXTENSION T DASARAHALLI BANGALORE",
    "Longitude": 77.51630522,
    "Latitude": 13.04225144
  },
  {
    "Sl No": 557,
    "Location": "53 93 3rd cross ktg collage road lakshmi devi Nagar sriganda kavalu sunkadakatt",
    "Longitude": 77.50603973,
    "Latitude": 12.9992139
  },
  {
    "Sl No": 558,
    "Location": "singapura village varadharia Nagar Bangalore 560097560097",
    "Longitude": 77.54029221,
    "Latitude": 13.08290764
  },
  {
    "Sl No": 559,
    "Location": "no1016 10th main prakash nagar Rajajinagar banglore",
    "Longitude": 77.55712475,
    "Latitude": 12.9930444
  },
  {
    "Sl No": 560,
    "Location": "angadi thimaya layout  2nd stage nagastehalli banglore",
    "Longitude": 77.57600884,
    "Latitude": 13.04406226
  },
  {
    "Sl No": 561,
    "Location": "kamakshipalya",
    "Longitude": 77.53061413,
    "Latitude": 12.98054059
  },
  {
    "Sl No": 562,
    "Location": "636  9main 3rd sage manjunatha nagar bangalore",
    "Longitude": 77.54349175,
    "Latitude": 12.99243707
  },
  {
    "Sl No": 563,
    "Location": "3/298 Manipal County road chikkabegur singasandra banglore",
    "Longitude": 77.63424161,
    "Latitude": 12.87953024
  },
  {
    "Sl No": 564,
    "Location": "BANDEMATTA KOMMAGHATTA MAIN ROAD KENGERI UPANAGAR BANGALORE",
    "Longitude": 77.47895009,
    "Latitude": 12.91164422
  },
  {
    "Sl No": 565,
    "Location": "PUTTANAHALLI MAIN ROAD NEAR FOOD WORLD YELAHANKA BANGALORE 64",
    "Longitude": 77.58021891,
    "Latitude": 13.10841466
  },
  {
    "Sl No": 566,
    "Location": "no2/49/116 near corporation kudala aecs layout main road Bangalore",
    "Longitude": 77.64920043,
    "Latitude": 12.88930416
  },
  {
    "Sl No": 567,
    "Location": "#70 halagevaderahalli main road RR na gar lake bengaluru 560098",
    "Longitude": 77.51433447,
    "Latitude": 12.92227575
  },
  {
    "Sl No": 568,
    "Location": "doddabylakere hesaraghatta main road Bangalore 560089",
    "Longitude": 77.52484302,
    "Latitude": 13.11437067
  },
  {
    "Sl No": 569,
    "Location": "NO 678/21 61ST CROSS 5TH BLOCK RAJAJI NAGAR BANGALORE 10",
    "Longitude": 77.55377197,
    "Latitude": 12.98420143
  },
  {
    "Sl No": 570,
    "Location": "SHOP NO 3 NO 54 S ANJINAPPA BLOCK DOWN BAZAR ROAD NEAR KOGILU CROSS YELAHANKA OLD TOWN BANGALORE 560064",
    "Longitude": 77.59884282,
    "Latitude": 13.1035717
  },
  {
    "Sl No": 571,
    "Location": "46 HANUMAN LAOUT RAMCHANDRA PURA MAIN ROAD BANGALORE 13",
    "Longitude": 77.55184936,
    "Latitude": 13.0614233
  },
  {
    "Sl No": 572,
    "Location": "NO 46 HANUMAN LAYOUT OPP PV GYM VIDRANYAPURA MAIN ROAD RAMACHANDRAPURA MAIN ROAD BANGALORE",
    "Longitude": 0,
    "Latitude": 0.03196019
  },
  {
    "Sl No": 573,
    "Location": "NO3 4TH MAIN ROAD MALLESHWARAM BANGALORE",
    "Longitude": 77.56878733,
    "Latitude": 12.99554031
  },
  {
    "Sl No": 574,
    "Location": "154 29th main road btm layout 2nd stage Bangalore",
    "Longitude": 77.61428933,
    "Latitude": 12.90953963
  },
  {
    "Sl No": 575,
    "Location": "NO 18 105 1 MAIN ROAD VIDYAMANA GAR ANDRALI BANGALORE 91",
    "Longitude": 77.48954817,
    "Latitude": 13.00430163
  },
  {
    "Sl No": 576,
    "Location": "59 CHIKADANDRA MAIN ROAD T DASARAHALI BANGALORE",
    "Longitude": 77.51563634,
    "Latitude": 13.04032466
  },
  {
    "Sl No": 577,
    "Location": "no727 3 block  Rajajinagar Bangalore",
    "Longitude": 77.55570983,
    "Latitude": 12.989892
  },
  {
    "Sl No": 578,
    "Location": "no66 thimmiaha road shivanagar",
    "Longitude": 77.54595302,
    "Latitude": 12.99085718
  },
  {
    "Sl No": 579,
    "Location": "sallapurdamma temple heganahali main road  sunkadakatte",
    "Longitude": 77.50321201,
    "Latitude": 12.99587974
  },
  {
    "Sl No": 580,
    "Location": "358/27-1herohalli magadi main road truevell near shukadhakate bangalore 560091",
    "Longitude": 77.49653533,
    "Latitude": 12.9885494
  },
  {
    "Sl No": 581,
    "Location": "NO 106 TP COLONY VIAJAYANAGAR BANGALORE 23",
    "Longitude": 77.54774475,
    "Latitude": 12.96847248
  },
  {
    "Sl No": 582,
    "Location": "SHOP NO 3 NO 54 S ANJINAPPA BLOCK DOWN BAZAR  ROAD NEAR KOGILU CROSS YELAHANKA OLD TOWN BANGALORE 560064",
    "Longitude": 77.59882405,
    "Latitude": 13.1036197
  },
  {
    "Sl No": 583,
    "Location": "20/21 HANUMAIAN complex HANUMAIAH LAYOUT SRK SCHOOL ROAD KODIGEHALLI BANGALORE 92",
    "Longitude": 77.57410414,
    "Latitude": 13.06153215
  },
  {
    "Sl No": 584,
    "Location": "#70 halagevaderalli  main road rr nagar bengaluru 560098",
    "Longitude": 77.51434653,
    "Latitude": 12.92223817
  },
  {
    "Sl No": 585,
    "Location": "banadematta kommaghatta main road kengri upanagara bangalore 560060",
    "Longitude": 77.47669804,
    "Latitude": 12.91996014
  },
  {
    "Sl No": 586,
    "Location": "#33 BTM 4th stage 2nd block 80ft road Bangalore 76",
    "Longitude": 77.61058017,
    "Latitude": 12.88810084
  },
  {
    "Sl No": 587,
    "Location": "NO 61 5th main BTS LAYOUT AREKERE BANGALORE 560076",
    "Longitude": 77.60965146,
    "Latitude": 12.88689746
  },
  {
    "Sl No": 588,
    "Location": "#212 3rd cross 17th main FF layout laggere Bangalore 58",
    "Longitude": 77.52851497,
    "Latitude": 13.00473709
  },
  {
    "Sl No": 589,
    "Location": "No 13 kommagata virabadharanagara circle thavarekere main road Bangalore 560060",
    "Longitude": 77.46088877,
    "Latitude": 12.93237941
  },
  {
    "Sl No": 590,
    "Location": "No 13kommagata virabadharanagar circle thavarekere main road Bangalore 560060",
    "Longitude": 77.46069733,
    "Latitude": 12.93221243
  },
  {
    "Sl No": 591,
    "Location": "No 329 CT BES BSK 2ND STAGE TYAGARAJA NAGAR VIDYAPEETA CIRCLE",
    "Longitude": 77.56425306,
    "Latitude": 12.93217975
  },
  {
    "Sl No": 592,
    "Location": "No 329 CT BES BSK 2ND STAGE TYAGARAJA NAGAR VIDYAPEETA CIRCLE",
    "Longitude": 77.56425675,
    "Latitude": 12.93218269
  },
  {
    "Sl No": 593,
    "Location": "No 50/30 1dt main road 3rd cross oopiste govt school channasandra Bangalore 560098",
    "Longitude": 77.52192579,
    "Latitude": 12.90259205
  },
  {
    "Sl No": 594,
    "Location": "rampura main road avalahalli virgonagsr post",
    "Longitude": 77.72976547,
    "Latitude": 13.03931178
  },
  {
    "Sl No": 595,
    "Location": "opp shell petrol bank Whitefield main road siddapura",
    "Longitude": 77.76586297,
    "Latitude": 12.9837531
  },
  {
    "Sl No": 596,
    "Location": "1 B NARAYANAPURA OPP Metro Pillar 104",
    "Longitude": 77.68470771,
    "Latitude": 13.00018023
  },
  {
    "Sl No": 597,
    "Location": "No 4 Ramchandrapura old villege anjaneya temple road",
    "Longitude": 77.5518864,
    "Latitude": 13.06190415
  },
  {
    "Sl No": 598,
    "Location": "Govt college road kumbena agrahara kadugodi",
    "Longitude": 77.75072593,
    "Latitude": 13.00083098
  },
  {
    "Sl No": 599,
    "Location": "NO10 KATAMNALLORE GATE BIDARAHALLI VIRGONAGAR POST BANGALORE",
    "Longitude": 77.76147991,
    "Latitude": 13.05558499
  },
  {
    "Sl No": 600,
    "Location": "near ss kalyana mantappa nadavathi main road k malasandra hoskote",
    "Longitude": 77.78529155,
    "Latitude": 13.00897339
  },